[
    {
        "name": "北京协和医院(东院) ",
        "address": "北京市东城区帅府园1号 ",
        "longitude": 116.420561,
        "latitude": 39.918397,
        "city": "北京市 "
    },
    {
        "name": "北京军区总医院附属八一儿童医院",
        "address": "东城区朝内北小街2号",
        "longitude": 116.432859,
        "latitude": 39.931599,
        "city": "北京市 "
    },
    {
        "name": "北京医院",
        "address": "东单大华路1号",
        "longitude": 116.422354,
        "latitude": 39.910386,
        "city": "北京市 "
    },
    {
        "name": "北京市东单儿童医院",
        "address": "东华门柏树胡同23号",
        "longitude": 116.423186,
        "latitude": 39.924049,
        "city": "北京市 "
    },
    {
        "name": "北京当代医院",
        "address": "东四北大街337号",
        "longitude": 116.423625,
        "latitude": 39.935182,
        "city": "北京市 "
    },
    {
        "name": "东四妇产医院",
        "address": "交道口北二条36号",
        "longitude": 116.419041,
        "latitude": 39.948727,
        "city": "北京市 "
    },
    {
        "name": "北京大学人民医院 ",
        "address": "北京市西城区西直门南大街11号 ",
        "longitude": 116.362061,
        "latitude": 39.944494,
        "city": "北京市 "
    },
    {
        "name": "北京大学第一医院妇产儿童医院",
        "address": "西安门大街1号",
        "longitude": 116.388959,
        "latitude": 39.929057,
        "city": "北京市 "
    },
    {
        "name": "首都医科大学附属北京儿童医院 ",
        "address": "北京市西城区南礼士路56号 ",
        "longitude": 116.359601,
        "latitude": 39.918375,
        "city": "北京市 "
    },
    {
        "name": "北京积水潭医院",
        "address": "新街口东街31号",
        "longitude": 116.382457,
        "latitude": 39.949151,
        "city": "北京市 "
    },
    {
        "name": "北京大学第一医院 ",
        "address": "北京市西城区西什库大街8号 ",
        "longitude": 116.386391,
        "latitude": 39.937968,
        "city": "北京市 "
    },
    {
        "name": "北京新世纪国际儿童医院",
        "address": "南礼士路56号",
        "longitude": 116.359601,
        "latitude": 39.918375,
        "city": "北京市 "
    },
    {
        "name": "北京曙光男科医院",
        "address": "西单时代广场往南200米西绒线胡同甲64号",
        "longitude": 116.381786,
        "latitude": 39.910409,
        "city": "北京市 "
    },
    {
        "name": "北京市西城区妇婴医院",
        "address": "西外桃柳园巷甲5号",
        "longitude": 116.590345,
        "latitude": 39.458539,
        "city": "北京市 "
    },
    {
        "name": "北京阳光丽人妇科医院",
        "address": "平安大街与赵登禹路交汇路口南",
        "longitude": 116.374186,
        "latitude": 39.935842,
        "city": "北京市 "
    },
    {
        "name": "北京妇产医院〓北京市妇幼保健院 ",
        "address": "北京市朝阳区姚家园路251号 ",
        "longitude": 116.477808,
        "latitude": 39.936395,
        "city": "北京市 "
    },
    {
        "name": "北京中日友好医院 ",
        "address": "北京市朝阳区樱花东路2号 ",
        "longitude": 116.436632,
        "latitude": 39.980072,
        "city": "北京市 "
    },
    {
        "name": "首都医科大学附属北京安贞医院 ",
        "address": "北京市朝阳区安定门外安贞医院 ",
        "longitude": 116.408634,
        "latitude": 39.98017,
        "city": "北京市 "
    },
    {
        "name": "北京朝阳医院 ",
        "address": "北京市朝阳区白家庄路8号 ",
        "longitude": 116.46162,
        "latitude": 39.931703,
        "city": "北京市 "
    },
    {
        "name": "北京建国不孕不育医院",
        "address": "西大望路2号（红庙路口东南角）",
        "longitude": 116.484739,
        "latitude": 39.920436,
        "city": "北京市 "
    },
    {
        "name": "北京市朝阳区妇幼保健院",
        "address": "华威里25号",
        "longitude": 116.462826,
        "latitude": 39.879987,
        "city": "北京市 "
    },
    {
        "name": "北京五洲女子医院",
        "address": "西大望路24号",
        "longitude": 116.483737,
        "latitude": 39.897763,
        "city": "北京市 "
    },
    {
        "name": "北京天伦医院",
        "address": "朝阳门南大街12号",
        "longitude": 116.44216,
        "latitude": 39.922853,
        "city": "北京市 "
    },
    {
        "name": "北京凤凰医院",
        "address": "将台西路18号(国宾大厦旁)",
        "longitude": 116.495581,
        "latitude": 39.97461,
        "city": "北京市 "
    },
    {
        "name": "北京瑞丽妇科医院",
        "address": "双桥地铁口桥南红绿灯西侧100米",
        "longitude": 116.584459,
        "latitude": 39.915739,
        "city": "北京市 "
    },
    {
        "name": "北京玛丽妇婴医院",
        "address": "和平里北街5号(东土城路北口）",
        "longitude": 116.437597,
        "latitude": 39.96569,
        "city": "北京市 "
    },
    {
        "name": "北京海文妇科医院",
        "address": "东三环劲松南路2号",
        "longitude": 116.466383,
        "latitude": 39.887045,
        "city": "北京市 "
    },
    {
        "name": "北京大学第三医院 ",
        "address": "北京市海淀区花园北路49号 ",
        "longitude": 116.36598,
        "latitude": 39.987602,
        "city": "北京市 "
    },
    {
        "name": "中国人民解放军第四六六医院 ",
        "address": "复兴路28号",
        "longitude": 116.281015,
        "latitude": 39.911283,
        "city": "北京市 "
    },
    {
        "name": "北京世纪坛医院(原北京铁路总医院) ",
        "address": "北京市海淀区羊坊店铁医路10号 ",
        "longitude": 116.326308,
        "latitude": 39.905889,
        "city": "北京市 "
    },
    {
        "name": "北京市海淀区妇幼保健院",
        "address": "海淀南路33号",
        "longitude": 116.308618,
        "latitude": 39.981085,
        "city": "北京市 "
    },
    {
        "name": "清华大学第二附属医院〓清华大学玉泉医院(原电子工业部四0二医院) ",
        "address": "北京市石景山区石景山路5号 ",
        "longitude": 116.253682,
        "latitude": 39.914968,
        "city": "北京市 "
    },
    {
        "name": "北京都市丽人医院",
        "address": "古城大街37号",
        "longitude": 116.192947,
        "latitude": 39.9177,
        "city": "北京市 "
    },
    {
        "name": "石景山区妇幼保健院",
        "address": "依翠园5号",
        "longitude": 116.225667,
        "latitude": 39.908301,
        "city": "北京市 "
    },
    {
        "name": "首都医科大学附属北京友谊医院 ",
        "address": "北京市宣武区永安路95号 ",
        "longitude": 116.40182,
        "latitude": 39.892776,
        "city": "北京市 "
    },
    {
        "name": "北京市宣武区妇幼保健院",
        "address": "平原里小区19号",
        "longitude": 116.378826,
        "latitude": 39.889161,
        "city": "北京市 "
    },
    {
        "name": "崇文区儿童医院 ",
        "address": "体育馆西路一号",
        "longitude": 116.428926,
        "latitude": 39.893078,
        "city": "北京市 "
    },
    {
        "name": "丰台区妇幼保健所 ",
        "address": "马家堡嘉园二里14号",
        "longitude": 116.374696,
        "latitude": 39.855289,
        "city": "北京市 "
    },
    {
        "name": "北京市门头沟区妇幼保健院",
        "address": "头沟区新桥南大街９号",
        "longitude": 116.112446,
        "latitude": 39.939582,
        "city": "北京市 "
    },
    {
        "name": "北京市房山区燕山妇幼保健院",
        "address": "房山区燕山迎风街19号",
        "longitude": 115.959478,
        "latitude": 39.731321,
        "city": "北京市 "
    },
    {
        "name": "北京市通州区妇幼保健院",
        "address": "通州区玉桥中路38号",
        "longitude": 116.684642,
        "latitude": 39.900403,
        "city": "北京市 "
    },
    {
        "name": "北京市顺义区妇幼保健院",
        "address": "顺义区顺康路1号",
        "longitude": 116.680523,
        "latitude": 40.120674,
        "city": "北京市 "
    },
    {
        "name": "北京市昌平区妇幼保健院",
        "address": "昌平城区镇北环路",
        "longitude": 116.228771,
        "latitude": 40.229353,
        "city": "北京市 "
    },
    {
        "name": "北京市大兴区妇幼保健院",
        "address": "黄村镇兴丰大街(三段)203号",
        "longitude": 116.346968,
        "latitude": 39.748536,
        "city": "北京市 "
    },
    {
        "name": "北京市平谷区妇幼保健院",
        "address": "迎宾北路38号",
        "longitude": 116.645802,
        "latitude": 40.340874,
        "city": "北京市 "
    },
    {
        "name": "延庆县妇幼保健院",
        "address": "延庆县延庆镇庆园街8号",
        "longitude": 115.991552,
        "latitude": 40.478331,
        "city": "北京市 "
    },
    {
        "name": "密云县妇幼保健院",
        "address": "密云县新南路56号",
        "longitude": 116.867132,
        "latitude": 40.379128,
        "city": "北京市 "
    },
    {
        "name": "天津市中医院 ",
        "address": "天津市河北区中山路125号 ",
        "longitude": 117.208934,
        "latitude": 39.165334,
        "city": "天津市 "
    },
    {
        "name": "天津市第一中心医院 ",
        "address": "天津市南开区复康路24号 ",
        "longitude": 117.159361,
        "latitude": 39.106192,
        "city": "天津市 "
    },
    {
        "name": "天津市人民医院(原天津市第二中心医院) ",
        "address": "天津市红桥区芥园道130号 ",
        "longitude": 117.1537,
        "latitude": 39.152467,
        "city": "天津市 "
    },
    {
        "name": "天津市第三中心医院〓天津市肝胆病医院 ",
        "address": "天津市津塘路83号 ",
        "longitude": 117.255824,
        "latitude": 39.115458,
        "city": "天津市 "
    },
    {
        "name": "天津市第四中心医院(原天津铁路中心医院) ",
        "address": "天津市河北区中山路3号 ",
        "longitude": 117.215822,
        "latitude": 39.170375,
        "city": "天津市 "
    },
    {
        "name": "天津医科大学总医院 ",
        "address": "天津市和平区鞍山道154号 ",
        "longitude": 117.192026,
        "latitude": 39.124064,
        "city": "天津市 "
    },
    {
        "name": "天津医科大学第二附属医院 ",
        "address": "天津市河西区平江道23号 ",
        "longitude": 117.22691,
        "latitude": 39.090103,
        "city": "天津市 "
    },
    {
        "name": "天津医科大学第三附属医院 ",
        "address": "天津市河西区三义庄街马场道91号 ",
        "longitude": 117.219749,
        "latitude": 39.11868,
        "city": "天津市 "
    },
    {
        "name": "天津医科大学口腔医院 ",
        "address": "天津市和平区新兴街气象台路12号 ",
        "longitude": 117.192202,
        "latitude": 39.110398,
        "city": "天津市 "
    },
    {
        "name": "天津医科大学附属肿瘤医院〓天津市肿瘤医院 ",
        "address": "天津市体院北环湖西路 ",
        "longitude": 117.190418,
        "latitude": 39.0876,
        "city": "天津市 "
    },
    {
        "name": "天津中医学院第一附属医院 ",
        "address": "天津市南开区鞍山西道314号 ",
        "longitude": 117.171419,
        "latitude": 39.120589,
        "city": "天津市 "
    },
    {
        "name": "天津中医学院第二附属医院 ",
        "address": "天津市河北区王串场真理道2号路 ",
        "longitude": 117.232511,
        "latitude": 39.15603,
        "city": "天津市 "
    },
    {
        "name": "天津市公安局安康医院 ",
        "address": "天津市河北区建昌道34号 ",
        "longitude": 117.230376,
        "latitude": 39.179529,
        "city": "天津市 "
    },
    {
        "name": "天津医院 ",
        "address": "天津市河西区解放南路406号 ",
        "longitude": 117.238446,
        "latitude": 39.099677,
        "city": "天津市 "
    },
    {
        "name": "天津市儿童医院 ",
        "address": "天津市河西区马场道225号 ",
        "longitude": 117.205737,
        "latitude": 39.106716,
        "city": "天津市 "
    },
    {
        "name": "天津市安定医院 ",
        "address": "天津市河西区吴家窑大街39号 ",
        "longitude": 117.195578,
        "latitude": 39.104075,
        "city": "天津市 "
    },
    {
        "name": "天津市环湖医院 ",
        "address": "天津市河西区气象台路122号 ",
        "longitude": 117.189237,
        "latitude": 39.095156,
        "city": "天津市 "
    },
    {
        "name": "天津市心理卫生医院 ",
        "address": "天津市和平区四平东道29号 ",
        "longitude": 117.201226,
        "latitude": 39.13238,
        "city": "天津市 "
    },
    {
        "name": "天津市中心妇产科医院 ",
        "address": "天津市和平区营口道210号 ",
        "longitude": 117.194554,
        "latitude": 39.118009,
        "city": "天津市 "
    },
    {
        "name": "天津市眼科医院 ",
        "address": "天津市和平区甘肃路和多伦道交口 ",
        "longitude": 117.191296,
        "latitude": 39.130862,
        "city": "天津市 "
    },
    {
        "name": "天津市胸科医院 ",
        "address": "天津市和平区西安道93号 ",
        "longitude": 117.203716,
        "latitude": 39.121709,
        "city": "天津市 "
    },
    {
        "name": "天津市口腔医院 ",
        "address": "天津市和平区大沽北路75号 ",
        "longitude": 117.212313,
        "latitude": 39.133484,
        "city": "天津市 "
    },
    {
        "name": "天津市整形外科医院 ",
        "address": "天津市和平区大沽路75号 ",
        "longitude": 117.212401,
        "latitude": 39.13341,
        "city": "天津市 "
    },
    {
        "name": "天津市长征医院 ",
        "address": "天津市和平区南门外大街243号 ",
        "longitude": 117.187791,
        "latitude": 39.136136,
        "city": "天津市 "
    },
    {
        "name": "天津市人民医院滨江分院 ",
        "address": "天津市和平区滨江道205号 ",
        "longitude": 117.205403,
        "latitude": 39.129306,
        "city": "天津市 "
    },
    {
        "name": "天津市传染病医院 ",
        "address": "天津市南开区苏堤路75号 ",
        "longitude": 117.157721,
        "latitude": 39.119135,
        "city": "天津市 "
    },
    {
        "name": "天津市中西医结合医院〓天津市南开医院 ",
        "address": "天津市南开区三纬路122号 ",
        "longitude": 117.177281,
        "latitude": 39.133732,
        "city": "天津市 "
    },
    {
        "name": "天津市大港医院 ",
        "address": "天津市大港区石化路1号 ",
        "longitude": 117.455797,
        "latitude": 38.84505,
        "city": "天津市 "
    },
    {
        "name": "海河医院(民营)(原中铁第十八工程集团中心医院) ",
        "address": "天津市津南区双港镇 ",
        "longitude": 117.325281,
        "latitude": 39.048547,
        "city": "天津市 "
    },
    {
        "name": "天津市宝坻区人民医院 ",
        "address": "天津市宝坻区城关镇百间居委会 ",
        "longitude": 117.313336,
        "latitude": 39.723451,
        "city": "天津市 "
    },
    {
        "name": "武警天津部队医院 ",
        "address": "天津市河东区程林庄道 ",
        "longitude": 117.263679,
        "latitude": 39.138644,
        "city": "天津市 "
    },
    {
        "name": "中国人民解放军第二五四医院 ",
        "address": "天津市河北区五马路160号 ",
        "longitude": 117.199807,
        "latitude": 39.166062,
        "city": "天津市 "
    },
    {
        "name": "中国人民解放军空军天津医院〓中国人民解放军四六四医院 ",
        "address": "天津市南开区李七庄凌庄子道47-1号 ",
        "longitude": 117.184512,
        "latitude": 39.073488,
        "city": "天津市 "
    },
    {
        "name": "河北医科大学第一医院〓河北医科大学第一临床医学院 ",
        "address": "石家庄市东岗路89号 ",
        "longitude": 114.558356,
        "latitude": 38.021883,
        "city": "石家庄市"
    },
    {
        "name": "河北医科大学第二医院 ",
        "address": "石家庄市和平西路215号 ",
        "longitude": 114.489794,
        "latitude": 38.064276,
        "city": "石家庄市"
    },
    {
        "name": "河北医科大学第三医院 ",
        "address": "石家庄市自强路139号 ",
        "longitude": 114.522082,
        "latitude": 38.048958,
        "city": "石家庄市"
    },
    {
        "name": "河北医科大学第四医院〓河北省肿瘤医院 ",
        "address": "石家庄市健康路12号 ",
        "longitude": 114.456847,
        "latitude": 38.045026,
        "city": "石家庄市"
    },
    {
        "name": "河北省人民医院 ",
        "address": "石家庄市和平西路348号 ",
        "longitude": 114.472929,
        "latitude": 38.064536,
        "city": "石家庄市"
    },
    {
        "name": "河北中医学院附属医院〓河北省中医院 ",
        "address": "石家庄市长安区中山东路389号 ",
        "longitude": 114.544146,
        "latitude": 38.04906,
        "city": "石家庄市"
    },
    {
        "name": "河北省儿童医院〓河北省第五医院 ",
        "address": "石家庄市长安区建华南大街133号 ",
        "longitude": 114.553133,
        "latitude": 38.04059,
        "city": "石家庄市"
    },
    {
        "name": "石家庄市第一医院 ",
        "address": "石家庄市范西路34号 ",
        "longitude": 114.521408,
        "latitude": 38.044943,
        "city": "石家庄市"
    },
    {
        "name": "河北医科大学中医学院附属医院〓石家庄市中医院 ",
        "address": "石家庄市中山西路233号 ",
        "longitude": 114.478668,
        "latitude": 38.049667,
        "city": "石家庄市"
    },
    {
        "name": "邯郸市中心医院 ",
        "address": "邯郸市中华南大街20号 ",
        "longitude": 114.499527,
        "latitude": 36.608526,
        "city": "邯郸市"
    },
    {
        "name": "邯郸市第一医院 ",
        "address": "河邯郸市丛台路24号 ",
        "longitude": 114.498095,
        "latitude": 36.624737,
        "city": "邯郸市"
    },
    {
        "name": "邯郸市中医院 ",
        "address": "邯郸市和平路311号 ",
        "longitude": 114.505965,
        "latitude": 36.60858,
        "city": "邯郸市"
    },
    {
        "name": "峰峰集团公司总医院 ",
        "address": "邯郸市峰峰矿区鼓山南街2号 ",
        "longitude": 114.214354,
        "latitude": 36.425328,
        "city": "邯郸市"
    },
    {
        "name": "河北大学附属医院(原河北省职工医学院附属医院) ",
        "address": "保定市南市区红星路108号 ",
        "longitude": 115.516239,
        "latitude": 38.8623,
        "city": "保定市"
    },
    {
        "name": "河北省第六人民医院〓河北省精神卫生中心〓河北省职工医学院第二附属医院 ",
        "address": "保定市南市区卫生路64号 ",
        "longitude": 115.484784,
        "latitude": 38.821877,
        "city": "保定市"
    },
    {
        "name": "保定市第一中医院(原保定地区中医院) ",
        "address": "保定市裕华西路16号 ",
        "longitude": 115.497554,
        "latitude": 38.864394,
        "city": "保定市"
    },
    {
        "name": "保定市妇幼保健院 ",
        "address": "保定市环城南路1号 ",
        "longitude": 116.008818,
        "latitude": 39.47627,
        "city": "保定市"
    },
    {
        "name": "涿州市结核病医院 ",
        "address": "涿州市 ",
        "longitude": 115.999054,
        "latitude": 39.482482,
        "city": "涿州市"
    },
    {
        "name": "河北北方学院附属第一医院 ",
        "address": "张家口市长青路12号 ",
        "longitude": 116.430439,
        "latitude": 39.879457,
        "city": "张家口市"
    },
    {
        "name": "承德医学院附属医院 ",
        "address": "承德市南营子大街36号 ",
        "longitude": 117.941868,
        "latitude": 40.975654,
        "city": "承德市"
    },
    {
        "name": "承德市中心医院〓承德医学院第二附属医院 ",
        "address": "承德市西大街路北22号 ",
        "longitude": 117.505276,
        "latitude": 40.422857,
        "city": "承德市"
    },
    {
        "name": "河北医科大附属唐山工人医院 ",
        "address": "唐山市路北区文化路27号 ",
        "longitude": 118.183451,
        "latitude": 39.650531,
        "city": "唐山市"
    },
    {
        "name": "唐山市人民医院〓唐山市肿瘤医院 ",
        "address": "唐山市路南区胜利路65号 ",
        "longitude": 118.220001,
        "latitude": 39.624891,
        "city": "唐山市"
    },
    {
        "name": "唐山市第四医院(原唐山市肺科医院) ",
        "address": "唐山市学警路南头 ",
        "longitude": 118.224829,
        "latitude": 39.60324,
        "city": "唐山市"
    },
    {
        "name": "唐山市第六医院(原唐山市妇幼保健院) ",
        "address": "唐山市路北区建设南路14号 ",
        "longitude": 118.183911,
        "latitude": 39.627471,
        "city": "唐山市"
    },
    {
        "name": "唐山市中医院 ",
        "address": "唐山市康庄道3号 ",
        "longitude": 118.193648,
        "latitude": 39.633279,
        "city": "唐山市"
    },
    {
        "name": "华北煤炭医学院附属医院 ",
        "address": "唐山市建设南路73号 ",
        "longitude": 118.18433,
        "latitude": 39.646656,
        "city": "唐山市"
    },
    {
        "name": "开滦医院 ",
        "address": "唐山市新华东道57号 ",
        "longitude": 118.205419,
        "latitude": 39.63113,
        "city": "唐山市"
    },
    {
        "name": "廊坊市人民医院 ",
        "address": "廊坊市新华路37号 ",
        "longitude": 116.715704,
        "latitude": 39.522581,
        "city": "廊坊市"
    },
    {
        "name": "廊坊市中医院 ",
        "address": "廊坊市银河北路108号 ",
        "longitude": 116.704123,
        "latitude": 39.541538,
        "city": "廊坊市"
    },
    {
        "name": "中国石油天然气总公司中心医院 ",
        "address": "廊坊市新开路51号 ",
        "longitude": 116.727613,
        "latitude": 39.526948,
        "city": "廊坊市"
    },
    {
        "name": "沧州市中心医院 ",
        "address": "沧州市新华中路201号 ",
        "longitude": 116.880772,
        "latitude": 38.316356,
        "city": "沧州市"
    },
    {
        "name": "沧州市中西医结合医院〓沧州市第二医院 ",
        "address": "沧州市南环西路22号 ",
        "longitude": 116.702978,
        "latitude": 38.040945,
        "city": "沧州市"
    },
    {
        "name": "华北石油管理局总医院 ",
        "address": "任丘市 ",
        "longitude": 116.163214,
        "latitude": 38.741105,
        "city": "任丘市"
    },
    {
        "name": "衡水市哈励逊国际和平医院〓衡水市人民医院 ",
        "address": "衡水市桃城区人民中路2号 ",
        "longitude": 115.699296,
        "latitude": 37.738164,
        "city": "衡水市"
    },
    {
        "name": "邢台市人民医院 ",
        "address": "邢台市红星西街 ",
        "longitude": 114.520487,
        "latitude": 37.069531,
        "city": "邢台市"
    },
    {
        "name": "秦皇岛市第一医院 ",
        "address": "秦皇岛市文化北路22号 ",
        "longitude": 119.597933,
        "latitude": 39.953602,
        "city": "秦皇岛市"
    },
    {
        "name": "中国人民解放军白求恩国际和平医院 ",
        "address": "石家庄市中山西路6号 ",
        "longitude": 114.491529,
        "latitude": 38.049787,
        "city": "石家庄市"
    },
    {
        "name": "中国人民解放军第二五一医院 ",
        "address": "张家口市建国路13号 ",
        "longitude": 116.519938,
        "latitude": 39.916192,
        "city": "张家口市"
    },
    {
        "name": "中国人民解放军第二五二医院 ",
        "address": "保定市花园街81号 ",
        "longitude": 115.495907,
        "latitude": 38.872442,
        "city": "保定市"
    },
    {
        "name": "河北中国人民解放军第二六六医院 ",
        "address": "承德市大佛寺北 ",
        "longitude": 117.960182,
        "latitude": 41.021625,
        "city": "承德市"
    },
    {
        "name": "山西医科大学第一医院〓山西医科大学第一临床医学院 ",
        "address": "太原市解放南路85号 ",
        "longitude": 112.561297,
        "latitude": 37.859328,
        "city": "太原市"
    },
    {
        "name": "山西医科大学第二医院〓山西红十字会医院 ",
        "address": "太原市五一路382号 ",
        "longitude": 112.579959,
        "latitude": 37.897794,
        "city": "太原市"
    },
    {
        "name": "山西省中医学院附属医院(原山西省中医药研究所) ",
        "address": "太原市并州西街46号 ",
        "longitude": 112.57354,
        "latitude": 37.857469,
        "city": "太原市"
    },
    {
        "name": "山西省人民医院 ",
        "address": "太原市双塔寺街99号 ",
        "longitude": 112.584768,
        "latitude": 37.852295,
        "city": "太原市"
    },
    {
        "name": "山西省儿童医院〓山西省妇幼保健院 ",
        "address": "太原市新民北街13号 ",
        "longitude": 112.57948,
        "latitude": 37.886189,
        "city": "太原市"
    },
    {
        "name": "山西省眼科医院 ",
        "address": "太原市府东街252号 ",
        "longitude": 112.586235,
        "latitude": 37.878245,
        "city": "太原市"
    },
    {
        "name": "山西中医学院中西医结合附属医院(原太原铁路中心医院) ",
        "address": "太原市府东街13号 ",
        "longitude": 112.588794,
        "latitude": 37.878668,
        "city": "太原市"
    },
    {
        "name": "长治医学院附属和平医院 ",
        "address": "长治市延安南路50号 ",
        "longitude": 113.123079,
        "latitude": 36.182015,
        "city": "长治市"
    },
    {
        "name": "中国人民解放军第二六四医院 ",
        "address": "太原市迎泽区桥东街 ",
        "longitude": 112.588486,
        "latitude": 37.864677,
        "city": "太原市"
    },
    {
        "name": "内蒙古医学院附属医院 ",
        "address": "呼和浩特市回民区通道北街1号 ",
        "longitude": 111.662369,
        "latitude": 40.826662,
        "city": "呼和浩特市"
    },
    {
        "name": "内蒙古医学院第二附属医院 ",
        "address": "呼和浩特市营坊道1号 ",
        "longitude": 111.667851,
        "latitude": 40.818892,
        "city": "呼和浩特市"
    },
    {
        "name": "内蒙古医学院第三附属医院〓包头市包钢职工医院 ",
        "address": "包头市昆都仑区少先路20号 ",
        "longitude": 109.830172,
        "latitude": 40.659219,
        "city": "包头市"
    },
    {
        "name": "内蒙古自治区医院 ",
        "address": "呼和浩特市新城区昭乌达路20号 ",
        "longitude": 111.702726,
        "latitude": 40.82176,
        "city": "呼和浩特市"
    },
    {
        "name": "内蒙古自治区中蒙医医院 ",
        "address": "呼和浩特市新城区健康街15号 ",
        "longitude": 111.679446,
        "latitude": 40.818301,
        "city": "呼和浩特市"
    },
    {
        "name": "内蒙古科技大学第一附属医院(原包头医学院第一附属医院) ",
        "address": "包头市昆都伦区钢铁大街25号 ",
        "longitude": 109.852382,
        "latitude": 40.662641,
        "city": "包头市"
    },
    {
        "name": "包头市中心医院(原包头市第二医院) ",
        "address": "包头市东河区环城路1号 ",
        "longitude": 110.034589,
        "latitude": 40.589669,
        "city": "包头市"
    },
    {
        "name": "赤峰市医院 ",
        "address": "赤峰市昭乌达路中段一号 ",
        "longitude": 118.96268,
        "latitude": 42.273878,
        "city": "赤峰市"
    },
    {
        "name": "中国人民解放军第二五三医院 ",
        "address": "呼和浩特市爱民路 ",
        "longitude": 111.693413,
        "latitude": 40.855144,
        "city": "呼和浩特市"
    },
    {
        "name": "中国医科大学第一附属医院 ",
        "address": "沈阳市和平区南京北街155号 ",
        "longitude": 123.420013,
        "latitude": 41.801174,
        "city": "沈阳市"
    },
    {
        "name": "中国医科大学第二附属医院〓盛京医院 ",
        "address": "沈阳市三好街36号 ",
        "longitude": 123.434446,
        "latitude": 41.778919,
        "city": "沈阳市"
    },
    {
        "name": "中国医科大学附属第四医院(原沈阳铁路局中心医院) ",
        "address": "沈阳市于洪区崇山东路4号 ",
        "longitude": 123.467409,
        "latitude": 41.839947,
        "city": "沈阳市"
    },
    {
        "name": "辽宁省中医院 ",
        "address": "沈阳市皇姑区北陵大街33号 ",
        "longitude": 123.43655,
        "latitude": 41.837666,
        "city": "沈阳市"
    },
    {
        "name": "辽宁省人民医院〓辽宁省红十字医院 ",
        "address": "沈阳市沈河区文艺路33号 ",
        "longitude": 123.459653,
        "latitude": 41.783813,
        "city": "沈阳市"
    },
    {
        "name": "辽宁省肿瘤医院 ",
        "address": "沈阳市大东区小河沿路44号 ",
        "longitude": 123.479096,
        "latitude": 41.799588,
        "city": "沈阳市"
    },
    {
        "name": "沈阳医学院奉天医院〓沈阳医学院附属中心医院(原沈阳市第八医院) ",
        "address": "沈阳市铁西区南七西路5号 ",
        "longitude": 123.348274,
        "latitude": 41.80558,
        "city": "沈阳市"
    },
    {
        "name": "沈阳医学院沈洲医院〓沈阳市心血管病医院(原沈阳医学院第二附属医院) ",
        "address": "沈阳市和平区北九马路20号 ",
        "longitude": 123.424028,
        "latitude": 41.808693,
        "city": "沈阳市"
    },
    {
        "name": "沈阳市第四人民医院 ",
        "address": "沈阳市皇姑区黄河南大街20号 ",
        "longitude": 123.427582,
        "latitude": 41.825975,
        "city": "沈阳市"
    },
    {
        "name": "沈阳市第五人民医院〓沈阳市肿瘤医院 ",
        "address": "沈阳市铁西区兴顺街188号 ",
        "longitude": 123.360619,
        "latitude": 41.794439,
        "city": "沈阳市"
    },
    {
        "name": "沈阳市儿童医院 ",
        "address": "沈阳市崇山东路74号 ",
        "longitude": 123.439906,
        "latitude": 41.838613,
        "city": "沈阳市"
    },
    {
        "name": "沈阳市红十字会医院 ",
        "address": "沈阳市沈河区中山路389号 ",
        "longitude": 123.443904,
        "latitude": 41.805597,
        "city": "沈阳市"
    },
    {
        "name": "辽阳省金秋医院 ",
        "address": "沈阳市沈河区小南街317号 ",
        "longitude": 123.456597,
        "latitude": 41.780347,
        "city": "沈阳市"
    },
    {
        "name": "沈阳二四二医院〓沈阳医学院附属第三医院 ",
        "address": "沈阳市皇姑区乐山路3号 ",
        "longitude": 123.427724,
        "latitude": 41.872429,
        "city": "沈阳市"
    },
    {
        "name": "铁岭市中心医院 ",
        "address": "铁岭市银州区岭东7号 ",
        "longitude": 123.858516,
        "latitude": 42.248295,
        "city": "铁岭市"
    },
    {
        "name": "铁岭矿务局总医院 ",
        "address": "铁岭市铁法镇44号 ",
        "longitude": 123.549351,
        "latitude": 42.453768,
        "city": "铁岭市"
    },
    {
        "name": "大连大学附属新华医院(原大连大学附属医院) ",
        "address": "大连市万岁街156号 ",
        "longitude": 121.606606,
        "latitude": 38.906983,
        "city": "大连市"
    },
    {
        "name": "大连大学附属中山医院(原大连铁路医院) ",
        "address": "大连市中山区解放街6号 ",
        "longitude": 121.654367,
        "latitude": 38.923384,
        "city": "大连市"
    },
    {
        "name": "大连医科大学附属第一医院 ",
        "address": "大连市中山路222号 ",
        "longitude": 121.618425,
        "latitude": 38.91639,
        "city": "大连市"
    },
    {
        "name": "大连医科大学附属第二医院 ",
        "address": "大连市沙河口区中山路467号 ",
        "longitude": 121.576521,
        "latitude": 38.888405,
        "city": "大连市"
    },
    {
        "name": "大连市中心医院 ",
        "address": "大连市学工街42号 ",
        "longitude": 121.581512,
        "latitude": 38.941983,
        "city": "大连市"
    },
    {
        "name": "大连市第二人民医院〓大连市中西医结合医院〓大连市骨科医院 ",
        "address": "大连市西岗区宏济街29号 ",
        "longitude": 121.627814,
        "latitude": 38.924061,
        "city": "大连市"
    },
    {
        "name": "大连市第三人民医院〓大连市肿瘤医院 ",
        "address": "大连市甘井子区千山路40号 ",
        "longitude": 121.585134,
        "latitude": 38.985641,
        "city": "大连市"
    },
    {
        "name": "大连市第六人民医院(原大连市传染病医院) ",
        "address": "大连市中山区春海街1号 ",
        "longitude": 121.683514,
        "latitude": 38.926349,
        "city": "大连市"
    },
    {
        "name": "大连市中医院 ",
        "address": "大连市中山区解放路321号 ",
        "longitude": 121.649847,
        "latitude": 38.908409,
        "city": "大连市"
    },
    {
        "name": "大连市儿童医院 ",
        "address": "大连市西岗区中山路154号 ",
        "longitude": 121.635794,
        "latitude": 38.918326,
        "city": "大连市"
    },
    {
        "name": "大连市友谊医院〓大连市红十字会医院 ",
        "address": "大连市中山区三八广场8号 ",
        "longitude": 121.663573,
        "latitude": 38.927348,
        "city": "大连市"
    },
    {
        "name": "大连市金州区第一人民医院 ",
        "address": "大连市金州区斯大林路683号 ",
        "longitude": 121.723841,
        "latitude": 39.107872,
        "city": "大连市"
    },
    {
        "name": "鞍山市中心医院 ",
        "address": "鞍山市铁东区南中华路77号 ",
        "longitude": 123.003685,
        "latitude": 41.110671,
        "city": "鞍山市"
    },
    {
        "name": "鞍山市中医院 ",
        "address": "鞍山市铁东区新营路15号 ",
        "longitude": 123.016495,
        "latitude": 41.094092,
        "city": "鞍山市"
    },
    {
        "name": "鞍钢铁东医院 ",
        "address": "鞍山市铁东区健身街3号 ",
        "longitude": 123.020036,
        "latitude": 41.129037,
        "city": "鞍山市"
    },
    {
        "name": "抚顺市第二医院 ",
        "address": "抚顺市丹东路东段61号 ",
        "longitude": 123.80229,
        "latitude": 41.859859,
        "city": "抚顺市"
    },
    {
        "name": "抚顺市中医院 ",
        "address": "抚顺市新抚区站前街9号 ",
        "longitude": 123.91271,
        "latitude": 41.866864,
        "city": "抚顺市"
    },
    {
        "name": "抚顺矿务局总医院 ",
        "address": "抚顺市中央大街24号 ",
        "longitude": 123.91381,
        "latitude": 41.864509,
        "city": "抚顺市"
    },
    {
        "name": "本溪市中心医院 ",
        "address": "本溪市明山区北光路45号 ",
        "longitude": 123.778029,
        "latitude": 41.307891,
        "city": "本溪市"
    },
    {
        "name": "本溪钢铁(集团)公司总医院 ",
        "address": "本溪市平山区人民路29号 ",
        "longitude": 123.771733,
        "latitude": 41.30232,
        "city": "本溪市"
    },
    {
        "name": "本溪市金山医院(原本溪矿务局总医院) ",
        "address": "本溪市明山区水塔路矿院街 ",
        "longitude": 123.786851,
        "latitude": 41.307644,
        "city": "本溪市"
    },
    {
        "name": "丹东市第一医院 ",
        "address": "丹东市金汤街7号 ",
        "longitude": 124.404029,
        "latitude": 40.139924,
        "city": "丹东市"
    },
    {
        "name": "丹东市中心医院(原丹东市第二医院) ",
        "address": "丹东市振兴区人民街70号 ",
        "longitude": 124.363761,
        "latitude": 40.107058,
        "city": "丹东市"
    },
    {
        "name": "丹东市中医院 ",
        "address": "丹东市振兴区九经街95号 ",
        "longitude": 124.355563,
        "latitude": 40.067035,
        "city": "丹东市"
    },
    {
        "name": "锦州医学院附属第一医院 ",
        "address": "锦州市古塔区人民街五段二号 ",
        "longitude": 121.136637,
        "latitude": 41.155042,
        "city": "锦州市"
    },
    {
        "name": "锦州市中心医院 ",
        "address": "锦州市古塔区上海路二段51号 ",
        "longitude": 121.133187,
        "latitude": 41.126956,
        "city": "锦州市"
    },
    {
        "name": "锦州医学院附属第三医院(原锦州市铁路中心医院) ",
        "address": "锦州市古塔区重庆路2段28号 ",
        "longitude": 121.128357,
        "latitude": 41.136716,
        "city": "锦州市"
    },
    {
        "name": "营口市中心医院 ",
        "address": "营口市站前区新立街新立里36号 ",
        "longitude": 122.265592,
        "latitude": 40.70301,
        "city": "营口市"
    },
    {
        "name": "阜新市中心医院 ",
        "address": "阜新市海州区中华路74号 ",
        "longitude": 121.665109,
        "latitude": 42.022855,
        "city": "阜新市"
    },
    {
        "name": "阜新矿业(集团)总医院 ",
        "address": "阜新市海州区保健街43号 ",
        "longitude": 121.658327,
        "latitude": 42.015438,
        "city": "阜新市"
    },
    {
        "name": "辽阳市中心医院 ",
        "address": "辽阳市文圣区中华大街二段148号 ",
        "longitude": 123.217971,
        "latitude": 41.276276,
        "city": "辽阳市"
    },
    {
        "name": "辽阳市石化医院 ",
        "address": "辽阳市宏伟区工农街5号 ",
        "longitude": 123.220518,
        "latitude": 41.220764,
        "city": "辽阳市"
    },
    {
        "name": "朝阳市中心医院 ",
        "address": "朝阳市朝阳大街二段六号 ",
        "longitude": 120.461178,
        "latitude": 41.588394,
        "city": "朝阳市"
    },
    {
        "name": "盘锦市第二人民医院 ",
        "address": "盘锦市双台子区红旗大街 ",
        "longitude": 122.037937,
        "latitude": 41.199358,
        "city": "盘锦市"
    },
    {
        "name": "辽河油田中心医院 ",
        "address": "盘锦市兴隆台区振兴街 ",
        "longitude": 122.0898,
        "latitude": 41.13528,
        "city": "盘锦市"
    },
    {
        "name": "葫芦岛市中心医院 ",
        "address": "葫芦岛市连山大街15号 ",
        "longitude": 120.86771,
        "latitude": 40.766014,
        "city": "葫芦岛市"
    },
    {
        "name": "沈阳军区总医院 ",
        "address": "沈阳市沈河区文化路83号 ",
        "longitude": 123.447883,
        "latitude": 41.77366,
        "city": "沈阳市"
    },
    {
        "name": "中国人民解放军第二Ｏ二医院 ",
        "address": "沈阳市和平区光荣街5号 ",
        "longitude": 123.419934,
        "latitude": 41.79242,
        "city": "沈阳市"
    },
    {
        "name": "中国人民解放军第四六三医院 ",
        "address": "沈阳市小河沿路46号 ",
        "longitude": 123.482266,
        "latitude": 41.799518,
        "city": "沈阳市"
    },
    {
        "name": "中国人民解放军第二一Ｏ医院 ",
        "address": "大连市胜利路80号 ",
        "longitude": 121.616328,
        "latitude": 38.909013,
        "city": "大连市"
    },
    {
        "name": "中国人民解放军第四Ｏ六医院 ",
        "address": "大连市茂林街89号 ",
        "longitude": 121.228697,
        "latitude": 38.811598,
        "city": "大连市"
    },
    {
        "name": "吉林大学第一医院 ",
        "address": "长春市阳区新民大街1号 ",
        "longitude": 125.313921,
        "latitude": 43.883038,
        "city": "长春市"
    },
    {
        "name": "吉林大学第二医院 ",
        "address": "长春市南关区自强街18号 ",
        "longitude": 125.348743,
        "latitude": 43.905535,
        "city": "长春市"
    },
    {
        "name": "吉林大学第三医院(中日联谊二部) ",
        "address": "长春市仙台大街2号 ",
        "longitude": 125.38371,
        "latitude": 43.857183,
        "city": "长春市"
    },
    {
        "name": "吉林大学第四医院(原第一汽车制造厂总医院) ",
        "address": "长春市东风大街2643号 ",
        "longitude": 125.250624,
        "latitude": 43.861747,
        "city": "长春市"
    },
    {
        "name": "吉林省人民医院 ",
        "address": "长春市工农大街1183号 ",
        "longitude": 125.885875,
        "latitude": 44.164447,
        "city": "长春市"
    },
    {
        "name": "长春中医学院附属医院〓吉林省中医院 ",
        "address": "长春市工农大路20号 ",
        "longitude": 125.309651,
        "latitude": 43.874116,
        "city": "长春市"
    },
    {
        "name": "长春市中心医院 ",
        "address": "长春市人民大街64号 ",
        "longitude": 125.332021,
        "latitude": 43.903357,
        "city": "长春市"
    },
    {
        "name": "长春市第三医院 ",
        "address": "长春市南关区五马路129号 ",
        "longitude": 125.346831,
        "latitude": 43.904205,
        "city": "长春市"
    },
    {
        "name": "长春市中医院 ",
        "address": "长春市曙光463号 ",
        "longitude": 125.339834,
        "latitude": 43.880568,
        "city": "长春市"
    },
    {
        "name": "长春市儿童医院 ",
        "address": "长春市朝阳区北安路69号 ",
        "longitude": 125.338196,
        "latitude": 43.899346,
        "city": "长春市"
    },
    {
        "name": "吉林省肿瘤医院 ",
        "address": "长春市朝阳区湖光路32号 ",
        "longitude": 125.295336,
        "latitude": 43.85184,
        "city": "长春市"
    },
    {
        "name": "吉林市中心医院 ",
        "address": "吉林市南京街4号 ",
        "longitude": 126.570811,
        "latitude": 43.847438,
        "city": "吉林市"
    },
    {
        "name": "吉林市第二中心医院(原吉林铁路中心医院) ",
        "address": "吉林市昌邑区中兴街36号 ",
        "longitude": 126.578355,
        "latitude": 43.868376,
        "city": "吉林市"
    },
    {
        "name": "吉林市中西医结合医院 ",
        "address": "吉林市船营区长春路9号 ",
        "longitude": 126.538067,
        "latitude": 43.834615,
        "city": "吉林市"
    },
    {
        "name": "北华大学附属医院 ",
        "address": "吉林市南京街30号 ",
        "longitude": 126.565639,
        "latitude": 43.851966,
        "city": "吉林市"
    },
    {
        "name": "吉化集团公司总医院 ",
        "address": "吉林市龙潭区大同路32号 ",
        "longitude": 126.630541,
        "latitude": 43.899399,
        "city": "吉林市"
    },
    {
        "name": "吉林省吉林化学工业公司职工医院 ",
        "address": "吉林市 ",
        "longitude": 126.564544,
        "latitude": 43.871988,
        "city": "吉林市"
    },
    {
        "name": "延边大学医学院附属医院 ",
        "address": "延吉市局子街119号 ",
        "longitude": 129.519176,
        "latitude": 42.919925,
        "city": "延吉市"
    },
    {
        "name": "吉林省脑科医院〓吉林省神经精神病医院 ",
        "address": "四平市中央西路98号 ",
        "longitude": 124.367583,
        "latitude": 43.18366,
        "city": "四平市"
    },
    {
        "name": "辽源市中医院 ",
        "address": "辽源市经康路65号 ",
        "longitude": 125.149255,
        "latitude": 42.909295,
        "city": "辽源市"
    },
    {
        "name": "中国人民解放军第二Ｏ八医院 ",
        "address": "长春市绿园区西安大街171号 ",
        "longitude": 125.308482,
        "latitude": 43.900522,
        "city": "长春市"
    },
    {
        "name": "中国人民解放军第二二二医院 ",
        "address": "吉林市船营区越山路47号 ",
        "longitude": 126.544503,
        "latitude": 43.849671,
        "city": "吉林市"
    },
    {
        "name": "中国人民解放军空军吉林医院〓中国人民解放军第四六五医院 ",
        "address": "吉林市丰满区华山路81号 ",
        "longitude": 126.579174,
        "latitude": 43.836559,
        "city": "吉林市"
    },
    {
        "name": "哈尔滨医科大学附属第一医院 ",
        "address": "哈尔滨市邮政街23号 ",
        "longitude": 126.656196,
        "latitude": 45.7724,
        "city": "哈尔滨市"
    },
    {
        "name": "哈尔滨医科大学附属第二医院 ",
        "address": "哈尔滨市南岗区学府路246号 ",
        "longitude": 126.622682,
        "latitude": 45.702812,
        "city": "哈尔滨市"
    },
    {
        "name": "哈尔滨医科大学附属第三医院〓黑龙江省肿瘤医院 ",
        "address": "哈尔滨市南岗区哈平路150号 ",
        "longitude": 126.649538,
        "latitude": 45.702104,
        "city": "哈尔滨市"
    },
    {
        "name": "哈尔滨医科大学附属第四医院(原哈尔滨铁路局中心医院) ",
        "address": "哈尔滨市颐园街37号 ",
        "longitude": 126.645355,
        "latitude": 45.769505,
        "city": "哈尔滨市"
    },
    {
        "name": "黑龙江省中医院〓黑龙江省中医研究院 ",
        "address": "哈尔滨市香坊区三辅街142号 ",
        "longitude": 126.680905,
        "latitude": 45.737027,
        "city": "哈尔滨市"
    },
    {
        "name": "黑龙江中医药大学附属第一医院 ",
        "address": "哈尔滨市动力区和平路26号 ",
        "longitude": 126.657249,
        "latitude": 45.733261,
        "city": "哈尔滨市"
    },
    {
        "name": "黑龙江中医药大学附属第二医院 ",
        "address": "哈尔滨市南岗区阿什河街122号 ",
        "longitude": 126.647923,
        "latitude": 45.769933,
        "city": "哈尔滨市"
    },
    {
        "name": "黑龙江省医院〓黑龙江省中日友谊医院 ",
        "address": "哈尔滨市中山路82号 ",
        "longitude": 126.679685,
        "latitude": 45.735418,
        "city": "哈尔滨市"
    },
    {
        "name": "黑龙江省第五医院〓黑龙江省康复医院 ",
        "address": "哈尔滨市太阳岛平原街27号 ",
        "longitude": 126.605344,
        "latitude": 45.792595,
        "city": "哈尔滨市"
    },
    {
        "name": "哈尔滨市第一医院 ",
        "address": "哈尔滨市道里区地段街151号 ",
        "longitude": 126.634059,
        "latitude": 45.779499,
        "city": "哈尔滨市"
    },
    {
        "name": "哈尔滨市第三医院〓哈尔滨第二四二医院 ",
        "address": "哈尔滨市平房区卫健街3号 ",
        "longitude": 126.676772,
        "latitude": 45.589848,
        "city": "哈尔滨市"
    },
    {
        "name": "哈尔滨市第四医院 ",
        "address": "哈尔滨市道外区靖宇16大街 ",
        "longitude": 126.653723,
        "latitude": 45.793054,
        "city": "哈尔滨市"
    },
    {
        "name": "哈尔滨市第五医院 ",
        "address": "哈尔滨市动力区健康路51号 ",
        "longitude": 126.663387,
        "latitude": 45.716832,
        "city": "哈尔滨市"
    },
    {
        "name": "哈尔滨市肛肠医院〓哈尔滨市中医院 ",
        "address": "哈尔滨市道里区建国街副270号 ",
        "longitude": 126.603263,
        "latitude": 45.750077,
        "city": "哈尔滨市"
    },
    {
        "name": "哈尔滨市红十字中心医院 ",
        "address": "哈尔滨市道里区新阳路415号 ",
        "longitude": 126.610181,
        "latitude": 45.753779,
        "city": "哈尔滨市"
    },
    {
        "name": "哈尔滨市儿童医院 ",
        "address": "哈尔滨市友谊路57号 ",
        "longitude": 126.631082,
        "latitude": 45.785926,
        "city": "哈尔滨市"
    },
    {
        "name": "哈尔滨市骨伤医院〓黑龙江省骨伤急救中心 ",
        "address": "哈尔滨市南岗区西大直街214号 ",
        "longitude": 126.629246,
        "latitude": 45.746175,
        "city": "哈尔滨市"
    },
    {
        "name": "哈尔滨市心理卫生中心〓哈尔滨市神经精神医院 ",
        "address": "哈尔滨市太平区卫星路18号 ",
        "longitude": 126.707463,
        "latitude": 45.777048,
        "city": "哈尔滨市"
    },
    {
        "name": "黑龙江省红十字会医院〓黑龙江省林业总医院 ",
        "address": "哈尔滨市动力区和兴路32号 ",
        "longitude": 126.64137,
        "latitude": 45.731456,
        "city": "哈尔滨市"
    },
    {
        "name": "齐齐哈尔医学院第一附属医院 ",
        "address": "齐齐哈尔市富拉尔基区向阳大街26号 ",
        "longitude": 123.655123,
        "latitude": 47.204571,
        "city": "齐齐哈尔市"
    },
    {
        "name": "齐齐哈尔医学院第二附属医院 ",
        "address": "齐齐哈尔市建华区中华西路39号 ",
        "longitude": 123.943421,
        "latitude": 47.363753,
        "city": "齐齐哈尔市"
    },
    {
        "name": "齐齐哈尔医学院第三附属医院(原齐齐哈尔铁路分局中心医院) ",
        "address": "齐齐哈尔市铁锋区太顺街27号 ",
        "longitude": 124.000017,
        "latitude": 47.35391,
        "city": "齐齐哈尔市"
    },
    {
        "name": "齐齐哈尔市第一医院 ",
        "address": "齐齐哈尔市公园路20号 ",
        "longitude": 123.958883,
        "latitude": 47.352492,
        "city": "齐齐哈尔市"
    },
    {
        "name": "齐齐哈尔市第二医院〓齐齐哈尔市妇幼保健院 ",
        "address": "齐齐哈尔市建华区中华西路38号 ",
        "longitude": 123.959591,
        "latitude": 47.362211,
        "city": "齐齐哈尔市"
    },
    {
        "name": "齐齐哈尔市中医院 ",
        "address": "齐齐哈尔市铁锋区平安南街23号 ",
        "longitude": 123.980194,
        "latitude": 47.34601,
        "city": "齐齐哈尔市"
    },
    {
        "name": "牡丹江医学院红旗医院 ",
        "address": "牡丹江市爱民区向阳街45号 ",
        "longitude": 129.583171,
        "latitude": 44.61066,
        "city": "牡丹江市"
    },
    {
        "name": "牡丹江市第一人民医院 ",
        "address": "牡丹江市爱民区建卫路4号 ",
        "longitude": 129.604751,
        "latitude": 44.604222,
        "city": "牡丹江市"
    },
    {
        "name": "牡丹江市中医院〓牡丹江市中西医结合医院 ",
        "address": "牡丹江市西长安街4号 ",
        "longitude": 129.624896,
        "latitude": 44.584611,
        "city": "牡丹江市"
    },
    {
        "name": "佳木斯大学第一附属医院 ",
        "address": "佳木斯市德祥街348号 ",
        "longitude": 130.365163,
        "latitude": 46.81041,
        "city": "佳木斯市"
    },
    {
        "name": "佳木斯市中心医院 ",
        "address": "佳木斯市中山街256号 ",
        "longitude": 130.37365,
        "latitude": 46.815997,
        "city": "佳木斯市"
    },
    {
        "name": "佳木斯市结核医院〓佳木斯胸科医院(原佳木斯市第二人民医院) ",
        "address": "佳木斯市光华路37号 ",
        "longitude": 130.284735,
        "latitude": 46.81378,
        "city": "佳木斯市"
    },
    {
        "name": "佳木斯市中医院 ",
        "address": "佳木斯市前进区中山路北段43号 ",
        "longitude": 130.284735,
        "latitude": 46.81378,
        "city": "佳木斯市"
    },
    {
        "name": "绥化市第一医院 ",
        "address": "绥化市北二东路43号 ",
        "longitude": 127.007532,
        "latitude": 46.64559,
        "city": "绥化市"
    },
    {
        "name": "黑龙江省第三医院〓黑龙江省神经精神病防治院 ",
        "address": "北安市交通路61号 ",
        "longitude": 126.512931,
        "latitude": 48.253507,
        "city": "北安市"
    },
    {
        "name": "大庆油田总医院〓大庆市第一医院 ",
        "address": "大庆市建设路 ",
        "longitude": 125.13496,
        "latitude": 46.591094,
        "city": "大庆市"
    },
    {
        "name": "大庆市中医院 ",
        "address": "大庆市友谊路35号 ",
        "longitude": 125.02184,
        "latitude": 46.596709,
        "city": "大庆市"
    },
    {
        "name": "鸡西矿业集团总医院 ",
        "address": "鸡西市和平北大街50号 ",
        "longitude": 130.981058,
        "latitude": 45.307503,
        "city": "鸡西市"
    },
    {
        "name": "虎林市人民医院 ",
        "address": "虎林市中心街34号 ",
        "longitude": 132.494184,
        "latitude": 45.916978,
        "city": "虎林市"
    },
    {
        "name": "双鸭山矿业集团总医院 ",
        "address": "双鸭山市尖山区新兴大街66号 ",
        "longitude": 131.163102,
        "latitude": 46.641856,
        "city": "双鸭山市"
    },
    {
        "name": "中国人民解放军第二一一医院 ",
        "address": "哈尔滨市学府路45号 ",
        "longitude": 126.618801,
        "latitude": 45.716298,
        "city": "哈尔滨市"
    },
    {
        "name": "中国人民解放军第二Ｏ三医院 ",
        "address": "齐齐哈尔市建华区建设大街59号 ",
        "longitude": 123.989205,
        "latitude": 47.349632,
        "city": "齐齐哈尔市"
    },
    {
        "name": "复旦大学附属中山医院 ",
        "address": "上海市徐汇区枫林路180号 ",
        "longitude": 121.461281,
        "latitude": 31.203669,
        "city": "上海市 "
    },
    {
        "name": "复旦大学附属肿瘤医院 ",
        "address": "上海市东安路270号 ",
        "longitude": 121.460308,
        "latitude": 31.19776,
        "city": "上海市 "
    },
    {
        "name": "复旦大学附属妇产科医院 ",
        "address": "上海市方斜路419号 ",
        "longitude": 121.489853,
        "latitude": 31.22004,
        "city": "上海市 "
    },
    {
        "name": "复旦大学附属儿科医院 ",
        "address": "上海徐汇区枫林路183号 ",
        "longitude": 121.461804,
        "latitude": 31.203383,
        "city": "上海市 "
    },
    {
        "name": "复旦大学附属眼耳鼻喉科医院 ",
        "address": "上海汾阳路83号 ",
        "longitude": 121.459798,
        "latitude": 31.216041,
        "city": "上海市 "
    },
    {
        "name": "复旦大学附属华山医院 ",
        "address": "上海市乌鲁木齐中路12号 ",
        "longitude": 121.450387,
        "latitude": 31.222578,
        "city": "上海市 "
    },
    {
        "name": "上海中医药大学附属龙华医院 ",
        "address": "上海市平南路725号 ",
        "longitude": 121.384736,
        "latitude": 31.152336,
        "city": "上海市 "
    },
    {
        "name": "上海市第一人民医院〓上海市红十字会医院 ",
        "address": "上海市武进路85号 ",
        "longitude": 121.494974,
        "latitude": 31.259002,
        "city": "上海市 "
    },
    {
        "name": "上海市第六人民医院〓上海交通大学医学院附属第六人民医院 ",
        "address": "上海市徐汇区宜山路600号 ",
        "longitude": 121.43086,
        "latitude": 31.184815,
        "city": "上海市 "
    },
    {
        "name": "上海第二医科大学附属第九人民医院 ",
        "address": "上海市制造局路639号 ",
        "longitude": 121.49191,
        "latitude": 31.208458,
        "city": "上海市 "
    },
    {
        "name": "上海市第十人民医院〓同济大学附属第十人民医院(原上海铁路局中心医院) ",
        "address": "上海市闸北区延长中路301号 ",
        "longitude": 121.460761,
        "latitude": 31.277533,
        "city": "上海市 "
    },
    {
        "name": "国际福利会国际和平妇幼保健院 ",
        "address": "上海市徐汇区衡山路910号 ",
        "longitude": 121.445859,
        "latitude": 31.202065,
        "city": "上海市 "
    },
    {
        "name": "上海市第一妇婴保健院 ",
        "address": "上海市长乐路536号 ",
        "longitude": 121.462726,
        "latitude": 31.22622,
        "city": "上海市 "
    },
    {
        "name": "上海市精神卫生中心(总部) ",
        "address": "上海市徐汇宛平南路600号 ",
        "longitude": 121.455535,
        "latitude": 31.19416,
        "city": "上海市 "
    },
    {
        "name": "上海伽玛刀医院(民营) ",
        "address": "上海市徐汇区吴中东路518号 ",
        "longitude": 121.428744,
        "latitude": 31.195926,
        "city": "上海市 "
    },
    {
        "name": "上海市儿童医院〓上海交通大学医学院附属儿童医院 ",
        "address": "上海北京西路1400弄24号 ",
        "longitude": 121.454915,
        "latitude": 31.235114,
        "city": "上海市"
    },
    {
        "name": "上海华东医院 ",
        "address": "上海市静安区延安西路221号 ",
        "longitude": 121.448163,
        "latitude": 31.225517,
        "city": "上海市 "
    },
    {
        "name": "上海中医药大学附属曙光医院 ",
        "address": "上海市普安路185号 ",
        "longitude": 121.485045,
        "latitude": 31.228535,
        "city": "上海市 "
    },
    {
        "name": "上海第二医科大学附属瑞金医院 ",
        "address": "上海市卢湾区瑞金二路197号 ",
        "longitude": 121.472713,
        "latitude": 31.218064,
        "city": "上海市 "
    },
    {
        "name": "上海第二医科大学附属新华医院 ",
        "address": "上海市杨浦控江路1665号 ",
        "longitude": 121.523624,
        "latitude": 31.280256,
        "city": "上海市 "
    },
    {
        "name": "同济大学附属肺科医院〓上海市职业病医院 ",
        "address": "上海市徐汇区延庆路130号(分部) ",
        "longitude": 121.456703,
        "latitude": 31.221296,
        "city": "上海市 "
    },
    {
        "name": "上海中医药大学附属岳阳中西医结合医院 ",
        "address": "上海市甘河路110号 ",
        "longitude": 121.494945,
        "latitude": 31.294553,
        "city": "上海市 "
    },
    {
        "name": "复旦大学附属公共卫生中心(原上海市传染病医院) ",
        "address": "上海市水电路56号 ",
        "longitude": 121.477504,
        "latitude": 31.279489,
        "city": "上海市 "
    },
    {
        "name": "上海第二医科大学附属仁济医院(西院) ",
        "address": "上海市黄浦区山东中路145号 ",
        "longitude": 121.49105,
        "latitude": 31.239359,
        "city": "上海市 "
    },
    {
        "name": "上海第二医科大学附属上海儿童医学中心 ",
        "address": "上海市浦东新区东方路1678号 ",
        "longitude": 121.530726,
        "latitude": 31.211404,
        "city": "上海市 "
    },
    {
        "name": "上海市中医院 ",
        "address": "上海市闸北区芷江中路274号 ",
        "longitude": 121.477828,
        "latitude": 31.265645,
        "city": "上海市 "
    },
    {
        "name": "上海市精神卫生中心分部 ",
        "address": "上海市沪闵路3210号 ",
        "longitude": 121.411609,
        "latitude": 31.05773,
        "city": "上海市"
    },
    {
        "name": "同济大学附属同济医院(原甘泉医院) ",
        "address": "上海市普陀新村路389号 ",
        "longitude": 121.736019,
        "latitude": 31.161041,
        "city": "上海市 "
    },
    {
        "name": "上海市皮肤病性病防治中心 ",
        "address": "上海长宁区武夷路196号 ",
        "longitude": 121.433317,
        "latitude": 31.219673,
        "city": "上海市 "
    },
    {
        "name": "上海市第二军医大学附属长征医院 ",
        "address": "上海黄浦区凤阳路415号 ",
        "longitude": 121.474218,
        "latitude": 31.239048,
        "city": "上海市 "
    },
    {
        "name": "上海市第二军医大学附属长海医院 ",
        "address": "上海杨浦区长海路174号 ",
        "longitude": 121.532388,
        "latitude": 31.315405,
        "city": "上海市 "
    },
    {
        "name": "上海第二军医大学附属东方肝胆外科医院 ",
        "address": "上海市长海路225号 ",
        "longitude": 121.535714,
        "latitude": 31.316022,
        "city": "上海市 "
    },
    {
        "name": "中国人民解放军第八十五医院 ",
        "address": "上海华山路1328号 ",
        "longitude": 121.439092,
        "latitude": 31.21557,
        "city": "上海市 "
    },
    {
        "name": "中国人民解放军第四一一医院 ",
        "address": "上海市东江湾路15号 ",
        "longitude": 121.487323,
        "latitude": 31.271251,
        "city": "上海市 "
    },
    {
        "name": "中国人民解放军第四五五医院 ",
        "address": "上海长宁区淮海西路338号 ",
        "longitude": 121.434518,
        "latitude": 31.205844,
        "city": "上海市"
    },
    {
        "name": "江苏省人民医院〓南京医科大学第一附属医院〓江苏省红十字医院 ",
        "address": "南京市广州路300号 ",
        "longitude": 118.77415,
        "latitude": 32.054058,
        "city": "南京市"
    },
    {
        "name": "江苏省中医院〓南京中医药大学附属医院〓江苏省红十字中医院 ",
        "address": "南京市汉中路155号 ",
        "longitude": 118.781338,
        "latitude": 32.04821,
        "city": "南京市"
    },
    {
        "name": "江苏省肿瘤医院〓南京医科大学附属肿瘤医院 ",
        "address": "南京市百子亭42号 ",
        "longitude": 118.791969,
        "latitude": 32.074204,
        "city": "南京市"
    },
    {
        "name": "南京医科大学附属南京第一医院〓南京市第一医院 ",
        "address": "南京市秦淮区长乐路68号 ",
        "longitude": 118.790508,
        "latitude": 32.024085,
        "city": "南京市"
    },
    {
        "name": "南京大学医学院附属鼓楼医院〓南京市鼓楼医院〓南京市红十字医院 ",
        "address": "南京市中山路321号 ",
        "longitude": 118.790013,
        "latitude": 32.063666,
        "city": "南京市"
    },
    {
        "name": "南京市中医院〓南京中医药大学附属第三医院 ",
        "address": "南京市金陵路1号 ",
        "longitude": 118.796342,
        "latitude": 32.028744,
        "city": "南京市"
    },
    {
        "name": "南京市妇幼保健医院 ",
        "address": "南京市白下区莫愁路天妃巷123号 ",
        "longitude": 118.783127,
        "latitude": 32.046102,
        "city": "南京市"
    },
    {
        "name": "南京市儿童医院 ",
        "address": "南京市广州路72号 ",
        "longitude": 118.785865,
        "latitude": 32.056511,
        "city": "南京市"
    },
    {
        "name": "南京市胸科医院 ",
        "address": "南京市鼓楼区广州路215号 ",
        "longitude": 118.775881,
        "latitude": 32.05435,
        "city": "南京市"
    },
    {
        "name": "南京医科大学附属脑科医院〓南京脑科医院 ",
        "address": "南京市鼓楼区广州路264号 ",
        "longitude": 118.775823,
        "latitude": 32.05578,
        "city": "南京市"
    },
    {
        "name": "南京市钟阜医院〓南京市肿瘤医院 ",
        "address": "南京市鼓楼区钟阜路1-1号 ",
        "longitude": 118.777419,
        "latitude": 32.095236,
        "city": "南京市"
    },
    {
        "name": "东南大学附属中大医院(原南京铁道医学院附属医院) ",
        "address": "南京市丁家桥87号 ",
        "longitude": 118.783266,
        "latitude": 32.077089,
        "city": "南京市"
    },
    {
        "name": "无锡市妇幼保健院 ",
        "address": "无锡市崇安区槐树巷48号 ",
        "longitude": 120.312949,
        "latitude": 31.57688,
        "city": "无锡市"
    },
    {
        "name": "江苏大学附属医院〓镇江市江滨医院 ",
        "address": "镇江市解放路438号 ",
        "longitude": 119.459253,
        "latitude": 32.21812,
        "city": "镇江市"
    },
    {
        "name": "苏州大学附属第一医院〓苏州市第一人民医院 ",
        "address": "苏州市十梓街96号 ",
        "longitude": 120.643381,
        "latitude": 31.308605,
        "city": "苏州市"
    },
    {
        "name": "苏州大学附属第二医院〓苏州市第六人民医院 ",
        "address": "苏州市三香路181号 ",
        "longitude": 120.585148,
        "latitude": 31.300803,
        "city": "苏州市"
    },
    {
        "name": "苏州市中医院 ",
        "address": "苏州市景德路314号 ",
        "longitude": 120.618689,
        "latitude": 31.316332,
        "city": "苏州市"
    },
    {
        "name": "南通大学院附属医院 ",
        "address": "南通市西寺路20号 ",
        "longitude": 120.871255,
        "latitude": 32.014832,
        "city": "南通市"
    },
    {
        "name": "南通市中医院 ",
        "address": "南通市崇川区建设路41号 ",
        "longitude": 120.872353,
        "latitude": 32.026443,
        "city": "南通市"
    },
    {
        "name": "扬州大学医学院附属医院 ",
        "address": "扬州市南通西路98号 ",
        "longitude": 119.438345,
        "latitude": 32.390051,
        "city": "扬州市"
    },
    {
        "name": "江苏省苏北人民医院〓扬州市红十字中心医院 ",
        "address": "扬州市广陵区南通西路98号 ",
        "longitude": 119.438345,
        "latitude": 32.390051,
        "city": "扬州市"
    },
    {
        "name": "徐州医学院附属医院〓徐州市第二人民医院 ",
        "address": "徐州市淮海西路99号 ",
        "longitude": 117.185195,
        "latitude": 34.269029,
        "city": "徐州市"
    },
    {
        "name": "徐州市中医院 ",
        "address": "徐州市中山南路169号 ",
        "longitude": 117.193463,
        "latitude": 34.258573,
        "city": "徐州市"
    },
    {
        "name": "徐州矿务集团第三医院 ",
        "address": "徐州市贾汪团结街 ",
        "longitude": 117.498246,
        "latitude": 34.410528,
        "city": "徐州市"
    },
    {
        "name": "苏州大学医学院附属第三医院〓常州市第一人民医院 ",
        "address": "常州市局前街185号 ",
        "longitude": 119.968154,
        "latitude": 31.786469,
        "city": "常州市"
    },
    {
        "name": "常州市中医院 ",
        "address": "常州市和平南路56号 ",
        "longitude": 119.971286,
        "latitude": 31.779313,
        "city": "常州市"
    },
    {
        "name": "溧阳市人民医院 ",
        "address": "溧阳市东大街129号 ",
        "longitude": 119.502892,
        "latitude": 31.435103,
        "city": "溧阳市"
    },
    {
        "name": "南京军区南京总医院 ",
        "address": "南京市中山东路305号 ",
        "longitude": 118.814894,
        "latitude": 32.046682,
        "city": "南京市"
    },
    {
        "name": "中国人民解放军第八十一医院 ",
        "address": "南京市白下区太平南路杨公井34号 ",
        "longitude": 118.800053,
        "latitude": 32.041234,
        "city": "南京市"
    },
    {
        "name": "中国人民解放军第九七医院〓徐州医学院附属淮海医院 ",
        "address": "徐州市铜山路226号 ",
        "longitude": 117.229213,
        "latitude": 34.269037,
        "city": "徐州市"
    },
    {
        "name": "常州和平医院〓中国人民解放军第102医院 ",
        "address": "常州市和平北路20号 ",
        "longitude": 119.96833,
        "latitude": 31.775855,
        "city": "常州市"
    },
    {
        "name": "浙江大学医学院附属第一医院〓浙江省第一医院 ",
        "address": "杭州市庆春路261号 ",
        "longitude": 120.169864,
        "latitude": 30.264096,
        "city": "杭州市"
    },
    {
        "name": "浙江大学医学院附属第二医院〓浙江省第二医院 ",
        "address": "杭州市上城区解放路68号 ",
        "longitude": 120.187231,
        "latitude": 30.25604,
        "city": "杭州市"
    },
    {
        "name": "浙江大学医学院附属儿童医院〓浙江省儿童医院 ",
        "address": "杭州市下城区竹竿巷57号 ",
        "longitude": 120.172173,
        "latitude": 30.265572,
        "city": "杭州市"
    },
    {
        "name": "浙江大学医学院附属邵逸夫医院 ",
        "address": "杭州市庆春东路3号 ",
        "longitude": 120.210311,
        "latitude": 30.263331,
        "city": "杭州市"
    },
    {
        "name": "浙江省人民医院〓浙江省立医院 ",
        "address": "杭州市上塘路158号 ",
        "longitude": 120.17441,
        "latitude": 30.290146,
        "city": "杭州市"
    },
    {
        "name": "浙江省立同德医院〓浙江省精神病医院 ",
        "address": "杭州市古翠路234号 ",
        "longitude": 120.125839,
        "latitude": 30.290549,
        "city": "杭州市"
    },
    {
        "name": "浙江省中医院〓浙江中医学院附属医院〓浙江省东方医院 ",
        "address": "杭州市邮电路54号 ",
        "longitude": 120.172308,
        "latitude": 30.257548,
        "city": "杭州市"
    },
    {
        "name": "浙江医院 ",
        "address": "杭州市西湖区灵隐路12号 ",
        "longitude": 120.130032,
        "latitude": 30.255081,
        "city": "杭州市"
    },
    {
        "name": "杭州市第一人民医院 ",
        "address": "杭州市上城区浣沙路261号 ",
        "longitude": 120.173741,
        "latitude": 30.259972,
        "city": "杭州市"
    },
    {
        "name": "杭州市中医院〓浙江中医学院附属第二医院 ",
        "address": "杭州市体育场路453号 ",
        "longitude": 120.160613,
        "latitude": 30.275825,
        "city": "杭州市"
    },
    {
        "name": "浙江中医学院附属中西医结合医院〓杭州市红十字会医院〓浙江省中西医结合医院 ",
        "address": "杭州市下城区环城东路38号 ",
        "longitude": 120.19324,
        "latitude": 30.257399,
        "city": "杭州市"
    },
    {
        "name": "台州学院医学院附属中心医院〓台州市中心医院 ",
        "address": "台州市椒江区经济技术开发区东海大道 ",
        "longitude": 121.409641,
        "latitude": 28.654917,
        "city": "台州市"
    },
    {
        "name": "台州学院医学院附属台州医院〓台州医院 ",
        "address": "临海市西门街150号 ",
        "longitude": 121.120531,
        "latitude": 28.851968,
        "city": "临海市"
    },
    {
        "name": "温州医学院附属第一医院〓浙江省立温州第一医院 ",
        "address": "温州市府学巷2号 ",
        "longitude": 120.671898,
        "latitude": 28.018903,
        "city": "温州市"
    },
    {
        "name": "温州医学院附属第二医院〓温州医学院附属育英儿童医院〓浙江省立育英医院 ",
        "address": "温州市医学院路109号 ",
        "longitude": 120.690635,
        "latitude": 28.002838,
        "city": "温州市"
    },
    {
        "name": "温州市第二人民医院〓温州市肿瘤医院 ",
        "address": "温州市鹿城区康乐坊 ",
        "longitude": 120.662512,
        "latitude": 28.025816,
        "city": "温州市"
    },
    {
        "name": "丽水市中心医院〓温州医学院附属第五医院 ",
        "address": "丽水市灯塔街2号 ",
        "longitude": 119.913989,
        "latitude": 28.456978,
        "city": "丽水市"
    },
    {
        "name": "金华市中心医院 ",
        "address": "金华市明月街71号 ",
        "longitude": 119.664545,
        "latitude": 29.107139,
        "city": "金华市"
    },
    {
        "name": "浙江中医学院附属第三医院〓金华市中医院 ",
        "address": "金华市双溪西路439号 ",
        "longitude": 119.648395,
        "latitude": 29.09381,
        "city": "金华市"
    },
    {
        "name": "中国人民解放军第一一七医院〓杭州空军医院 ",
        "address": "杭州市灵隐路14号 ",
        "longitude": 120.124825,
        "latitude": 30.251991,
        "city": "杭州市"
    },
    {
        "name": "安徽省立医院 ",
        "address": "合肥市庐江路17号 ",
        "longitude": 117.296024,
        "latitude": 31.863221,
        "city": "合肥市"
    },
    {
        "name": "安徽医科大学第一附属医院 ",
        "address": "合肥市绩溪路218号 ",
        "longitude": 117.275257,
        "latitude": 31.851767,
        "city": "合肥市"
    },
    {
        "name": "安徽中医学院第一附属医院〓安徽省中医院 ",
        "address": "合肥市梅山路117号 ",
        "longitude": 117.268196,
        "latitude": 31.859489,
        "city": "合肥市"
    },
    {
        "name": "合肥市第一人民医院〓合肥红十字会博恩医院 ",
        "address": "合肥市淮河路390号 ",
        "longitude": 117.28716,
        "latitude": 31.872431,
        "city": "合肥市"
    },
    {
        "name": "滁州市第一人民医院 ",
        "address": "滁州市鼓楼忠佑街4号 ",
        "longitude": 117.296347,
        "latitude": 31.869547,
        "city": "滁州市"
    },
    {
        "name": "蚌埠医学院附属医院〓安徽省肿瘤医院 ",
        "address": "蚌埠市长淮路287号 ",
        "longitude": 117.380315,
        "latitude": 32.95859,
        "city": "蚌埠市"
    },
    {
        "name": "蚌埠市第三人民医院〓东南大学医学院附属蚌埠市第三医院 ",
        "address": "蚌埠市胜利中路38号 ",
        "longitude": 117.372844,
        "latitude": 32.945573,
        "city": "蚌埠市"
    },
    {
        "name": "皖南医学院附属医院弋矶山医院 ",
        "address": "芜湖市矶山西路92号 ",
        "longitude": 118.384108,
        "latitude": 31.36602,
        "city": "芜湖市"
    },
    {
        "name": "淮南矿务局职业病防治院 ",
        "address": "淮南市田家庵区洞大路南 ",
        "longitude": 117.014687,
        "latitude": 32.564364,
        "city": "淮南市"
    },
    {
        "name": "安庆市立医院 ",
        "address": "安庆市人民路178号 ",
        "longitude": 117.068519,
        "latitude": 30.510205,
        "city": "安庆市"
    },
    {
        "name": "阜阳市人民医院(原阜阳地区人民医院) ",
        "address": "阜阳市古楼区鹿祠街63号 ",
        "longitude": 115.816083,
        "latitude": 32.905621,
        "city": "阜阳市"
    },
    {
        "name": "淮北市人民医院 ",
        "address": "淮北市淮海路66号 ",
        "longitude": 116.794014,
        "latitude": 33.978817,
        "city": "淮北市"
    },
    {
        "name": "淮北矿业(集团)公司矿工总医院 ",
        "address": "淮北市相山区淮海路民生巷2号 ",
        "longitude": 116.806972,
        "latitude": 33.981979,
        "city": "淮北市"
    },
    {
        "name": "铜陵市第一人民医院 ",
        "address": "铜陵市 ",
        "longitude": 117.819429,
        "latitude": 30.94093,
        "city": "铜陵市"
    },
    {
        "name": "六安市人民医院 ",
        "address": "六安市皖西西路21号 ",
        "longitude": 116.520668,
        "latitude": 31.759498,
        "city": "六安市"
    },
    {
        "name": "池州市人民医院 ",
        "address": "池州市百牙路38号 ",
        "longitude": 117.491559,
        "latitude": 30.670396,
        "city": "池州市"
    },
    {
        "name": "中国人民武装警察部队安徽省总队医院 ",
        "address": "合肥市长丰路78号 ",
        "longitude": 117.266399,
        "latitude": 31.879953,
        "city": "合肥市"
    },
    {
        "name": "福建医科大学附属协和医院 ",
        "address": "福州市新权路29号 ",
        "longitude": 119.310956,
        "latitude": 26.083786,
        "city": "福州市"
    },
    {
        "name": "福建医科大学附属第一医院 ",
        "address": "福州市台江区茶中路20号 ",
        "longitude": 119.308789,
        "latitude": 26.076082,
        "city": "福州市"
    },
    {
        "name": "福建中医学院附属人民医院〓福建省人民医院 ",
        "address": "福州市八一七中路602号 ",
        "longitude": 119.311277,
        "latitude": 26.06843,
        "city": "福州市"
    },
    {
        "name": "福建省立医院 ",
        "address": "福州市东街134号 ",
        "longitude": 119.31404,
        "latitude": 26.093092,
        "city": "福州市"
    },
    {
        "name": "福建省妇幼保健院 ",
        "address": "福州市鼓楼区道山路18号 ",
        "longitude": 119.30684,
        "latitude": 26.084957,
        "city": "福州市"
    },
    {
        "name": "福建省肿瘤医院 ",
        "address": "福州市福马路凤板马路顶91号 ",
        "longitude": 119.349321,
        "latitude": 26.080027,
        "city": "福州市"
    },
    {
        "name": "福州中西结合医院(原福州市第二医院) ",
        "address": "福州市仓山区上藤路47号 ",
        "longitude": 119.326929,
        "latitude": 26.05216,
        "city": "福州市"
    },
    {
        "name": "福州市第四医院〓福州市神经精神病防治院 ",
        "address": "福州市福清路塘池街52号 ",
        "longitude": 119.297625,
        "latitude": 26.031825,
        "city": "福州市"
    },
    {
        "name": "福州市妇幼保健院 ",
        "address": "福州市鼓楼区鼓东路23号 ",
        "longitude": 119.305552,
        "latitude": 26.095369,
        "city": "福州市"
    },
    {
        "name": "福州肺科医院〓福州市结核病防治院 ",
        "address": "福州市仓山区福湾路2号 ",
        "longitude": 119.302707,
        "latitude": 26.031936,
        "city": "福州市"
    },
    {
        "name": "福州市传染病医院 ",
        "address": "福州市古楼区西洪路312号 ",
        "longitude": 119.285332,
        "latitude": 26.090447,
        "city": "福州市"
    },
    {
        "name": "厦门眼科中心医院 ",
        "address": "厦门市厦禾路238号 ",
        "longitude": 118.084358,
        "latitude": 24.466035,
        "city": "厦门市"
    },
    {
        "name": "厦门中山医院 ",
        "address": "厦门市开元区湖滨南路209号 ",
        "longitude": 118.104034,
        "latitude": 24.477008,
        "city": "厦门市"
    },
    {
        "name": "福建医科大学附属第二医院 ",
        "address": "泉州市中山北路34号 ",
        "longitude": 118.598063,
        "latitude": 24.919698,
        "city": "泉州市"
    },
    {
        "name": "南京军区福州总医院(原解放军九三医院) ",
        "address": "福州市西二环北路156号 ",
        "longitude": 119.288345,
        "latitude": 26.095715,
        "city": "福州市"
    },
    {
        "name": "中国人民解放军第一七五医院 ",
        "address": "漳州市章响路 ",
        "longitude": 117.676205,
        "latitude": 24.517065,
        "city": "漳州市"
    },
    {
        "name": "江西医学院第一附属医院 ",
        "address": "南昌市永外正街17号 ",
        "longitude": 115.915694,
        "latitude": 28.692726,
        "city": "南昌市"
    },
    {
        "name": "江西医学院第二附属医院 ",
        "address": "南昌市民德路1号 ",
        "longitude": 115.90873,
        "latitude": 28.688069,
        "city": "南昌市"
    },
    {
        "name": "江西医学院第三附属医院〓南昌市第一医院 ",
        "address": "南昌市象山北路128号 ",
        "longitude": 115.896728,
        "latitude": 28.684794,
        "city": "南昌市"
    },
    {
        "name": "江西医学院附属口腔医院 ",
        "address": "南昌市东湖区福州路49号 ",
        "longitude": 115.91252,
        "latitude": 28.688785,
        "city": "南昌市"
    },
    {
        "name": "江西中医学院附属医院〓江西省中医院 ",
        "address": "南昌市八一大道445号 ",
        "longitude": 115.910007,
        "latitude": 28.689327,
        "city": "南昌市"
    },
    {
        "name": "江西省人民医院 ",
        "address": "南昌市东湖区爱国路92号 ",
        "longitude": 115.89679,
        "latitude": 28.699341,
        "city": "南昌市"
    },
    {
        "name": "江西省肿瘤医院〓江西省第二人民医院 ",
        "address": "南昌市北京东路519号 ",
        "longitude": 115.960483,
        "latitude": 28.680957,
        "city": "南昌市"
    },
    {
        "name": "江西省儿童医院 ",
        "address": "南昌市阳明路122号 ",
        "longitude": 115.902603,
        "latitude": 28.694008,
        "city": "南昌市"
    },
    {
        "name": "江西省胸科医院〓江西省结核病防治所〓江西老年病医院 ",
        "address": "南昌市叠山路346号 ",
        "longitude": 115.898436,
        "latitude": 28.690446,
        "city": "南昌市"
    },
    {
        "name": "南昌市中西医结合医院〓南昌市第二医院〓江西中医学院附属中西医结合医院 ",
        "address": "南昌市八一大道90号(老福山) ",
        "longitude": 115.913559,
        "latitude": 28.670921,
        "city": "南昌市"
    },
    {
        "name": "赣南医学院附属医院 ",
        "address": "赣州市青年路49号 ",
        "longitude": 114.934929,
        "latitude": 25.863402,
        "city": "赣州市"
    },
    {
        "name": "赣州市人民医院(原赣州地区人民医院) ",
        "address": "赣州市红旗大道17号 ",
        "longitude": 114.956972,
        "latitude": 25.855546,
        "city": "赣州市"
    },
    {
        "name": "中国人民解放军第九四医院 ",
        "address": "南昌市井冈山大道890号 ",
        "longitude": 115.917481,
        "latitude": 28.655618,
        "city": "南昌市"
    },
    {
        "name": "山东大学齐鲁医院 ",
        "address": "济南市历下区文化西路107号 ",
        "longitude": 117.024739,
        "latitude": 36.661854,
        "city": "济南市"
    },
    {
        "name": "山东中医药大学附属医院〓山东省中医院 ",
        "address": "济南市文化西路42号 ",
        "longitude": 117.031177,
        "latitude": 36.661059,
        "city": "济南市"
    },
    {
        "name": "山东中医药大学第二附属医院(原济南铁路中心医院) ",
        "address": "济南市中区经八路1号 ",
        "longitude": 117.019101,
        "latitude": 36.658639,
        "city": "济南市"
    },
    {
        "name": "山东省立医院 ",
        "address": "济南市经五纬七路324号 ",
        "longitude": 116.98875,
        "latitude": 36.662009,
        "city": "济南市"
    },
    {
        "name": "山东省千佛山医院 ",
        "address": "济南市历下区经十路66号 ",
        "longitude": 117.049551,
        "latitude": 36.65412,
        "city": "济南市"
    },
    {
        "name": "山东省肿瘤医院〓山东省肿瘤防治研究院 ",
        "address": "济南市槐荫区济兖路440号 ",
        "longitude": 116.859583,
        "latitude": 36.643867,
        "city": "济南市"
    },
    {
        "name": "济南市中心医院〓山东大学临床医院 ",
        "address": "济南市历下区解放路105号 ",
        "longitude": 117.055927,
        "latitude": 36.67226,
        "city": "济南市"
    },
    {
        "name": "济南市第四人民医院〓泰山医学院第二附属医院 ",
        "address": "济南市天桥区师范路50号 ",
        "longitude": 116.986015,
        "latitude": 36.701654,
        "city": "济南市"
    },
    {
        "name": "济南市中医院 ",
        "address": "济南市市中区共青团路76号 ",
        "longitude": 117.01566,
        "latitude": 36.66904,
        "city": "济南市"
    },
    {
        "name": "济南市妇幼保健院 ",
        "address": "济南市建国小经三路2号 ",
        "longitude": 117.01072,
        "latitude": 36.660005,
        "city": "济南市"
    },
    {
        "name": "山东大学齐鲁儿童医院〓济南市儿童医院 ",
        "address": "济南市槐荫区经十路430号 ",
        "longitude": 116.969411,
        "latitude": 36.654289,
        "city": "济南市"
    },
    {
        "name": "济南施尔明眼科医院 ",
        "address": "济南市市中区经八路2号 ",
        "longitude": 117.019062,
        "latitude": 36.657729,
        "city": "济南市"
    },
    {
        "name": "菏泽市中医院(民营) ",
        "address": "菏泽市丹阳路128号 ",
        "longitude": 115.509219,
        "latitude": 35.244052,
        "city": "菏泽市"
    },
    {
        "name": "青岛大学医学院附属医院 ",
        "address": "青岛市江苏路16号 ",
        "longitude": 120.334163,
        "latitude": 36.072002,
        "city": "青岛市"
    },
    {
        "name": "青岛大学医学院第二附属医院〓青岛纺织医院 ",
        "address": "青岛市四流南路127号 ",
        "longitude": 120.3828,
        "latitude": 36.145508,
        "city": "青岛市"
    },
    {
        "name": "山东省青岛疗养院〓山东康复中心 ",
        "address": "青岛市市南区正阳关路16号 ",
        "longitude": 120.358689,
        "latitude": 36.060084,
        "city": "青岛市"
    },
    {
        "name": "青岛市立医院 ",
        "address": "青岛市胶州路1号 ",
        "longitude": 120.334263,
        "latitude": 36.079661,
        "city": "青岛市"
    },
    {
        "name": "青岛市人民医院〓青岛市红十字会医院 ",
        "address": "青岛市安徽路21号 ",
        "longitude": 120.329556,
        "latitude": 36.074224,
        "city": "青岛市"
    },
    {
        "name": "青岛市海慈医疗集团(原青岛市第二人民医院) ",
        "address": "青岛市人民路4号 ",
        "longitude": 120.367093,
        "latitude": 36.100377,
        "city": "青岛市"
    },
    {
        "name": "青岛市第五人民医院〓青岛市中西医结合医院 ",
        "address": "青岛市市南区嘉祥路3号 ",
        "longitude": 120.312417,
        "latitude": 36.071384,
        "city": "青岛市"
    },
    {
        "name": "青岛市妇女儿童医疗保健中心 ",
        "address": "青岛市铁山路10号 ",
        "longitude": 120.335021,
        "latitude": 36.087517,
        "city": "青岛市"
    },
    {
        "name": "淄博市中心医院 ",
        "address": "淄博市张店区共青团西路54号 ",
        "longitude": 118.059116,
        "latitude": 36.813153,
        "city": "淄博市"
    },
    {
        "name": "淄博市妇幼保健院(原淄博市第三人民医院) ",
        "address": "淄博市张店区杏园东路11号 ",
        "longitude": 118.066039,
        "latitude": 36.796147,
        "city": "淄博市"
    },
    {
        "name": "山东中医药大学第四附属医院〓淄博市中医院 ",
        "address": "淄博市周村区新建中路75号 ",
        "longitude": 117.856658,
        "latitude": 36.807128,
        "city": "淄博市"
    },
    {
        "name": "山东侨联医院〓淄博市耳鼻咽喉医院 ",
        "address": "淄博市张店区柳泉路55号 ",
        "longitude": 118.058709,
        "latitude": 36.823756,
        "city": "淄博市"
    },
    {
        "name": "德州市结核病防治所〓德州市肿瘤医院 ",
        "address": "德州市铁西南路健康路17号 ",
        "longitude": 116.288944,
        "latitude": 37.438733,
        "city": "德州市"
    },
    {
        "name": "烟台毓璜顶医院〓青岛大学医学院附属烟台毓瑛顶医院 ",
        "address": "烟台市毓璜顶东路20号 ",
        "longitude": 121.396121,
        "latitude": 37.541945,
        "city": "烟台市"
    },
    {
        "name": "山东中医药大学附属烟台中医院〓烟台市中医院〓烟台市中西医结合医院 ",
        "address": "烟台市幸福路39号 ",
        "longitude": 121.309555,
        "latitude": 37.536562,
        "city": "烟台市"
    },
    {
        "name": "潍坊市人民医院 ",
        "address": "潍坊市奎文区广文街151号 ",
        "longitude": 119.140261,
        "latitude": 36.705355,
        "city": "潍坊市"
    },
    {
        "name": "潍坊市中医院 ",
        "address": "潍坊市奎文区潍州路666号 ",
        "longitude": 119.127541,
        "latitude": 36.716225,
        "city": "潍坊市"
    },
    {
        "name": "济宁市第一人民医院 ",
        "address": "济宁市市中区健康路 ",
        "longitude": 116.600039,
        "latitude": 35.402912,
        "city": "济宁市"
    },
    {
        "name": "济宁医学院第二附属医院〓山东省安康医院〓济宁市精神病医院 ",
        "address": "济宁市任城区北戴庄 ",
        "longitude": 116.572199,
        "latitude": 35.380135,
        "city": "济宁市"
    },
    {
        "name": "泰安市中心医院 ",
        "address": "泰安市龙潭路29号 ",
        "longitude": 117.119171,
        "latitude": 36.200054,
        "city": "泰安市"
    },
    {
        "name": "临沂市人民医院 ",
        "address": "临沂市解放路东段27号 ",
        "longitude": 118.35608,
        "latitude": 35.069763,
        "city": "临沂市"
    },
    {
        "name": "临沂市中医院 ",
        "address": "临沂市解放路120号 ",
        "longitude": 118.324592,
        "latitude": 35.07382,
        "city": "临沂市"
    },
    {
        "name": "滨州医学院附属医院 ",
        "address": "滨州市黄河二路661号 ",
        "longitude": 118.018128,
        "latitude": 37.376516,
        "city": "滨州市"
    },
    {
        "name": "胜利油田中心医院 ",
        "address": "东营市东营区济南路280号 ",
        "longitude": 118.504264,
        "latitude": 37.467945,
        "city": "东营市"
    },
    {
        "name": "威海口腔医院 ",
        "address": "威海市青岛北路29号 ",
        "longitude": 122.140068,
        "latitude": 37.487815,
        "city": "威海市"
    },
    {
        "name": "枣庄市立医院〓济宁医学院附属枣庄市立医院 ",
        "address": "枣庄市龙头路47号 ",
        "longitude": 117.571112,
        "latitude": 34.852596,
        "city": "枣庄市"
    },
    {
        "name": "枣庄市立中医院 ",
        "address": "枣庄市市中区公胜街24号 ",
        "longitude": 117.569888,
        "latitude": 34.873857,
        "city": "枣庄市"
    },
    {
        "name": "聊城市中医院 ",
        "address": "聊城市文化路1号 ",
        "longitude": 115.986869,
        "latitude": 36.455829,
        "city": "聊城市"
    },
    {
        "name": "济南军区总医院 ",
        "address": "济南市师范路25号 ",
        "longitude": 116.990025,
        "latitude": 36.70217,
        "city": "济南市"
    },
    {
        "name": "中国人民解放军第八十八医院 ",
        "address": "泰安市 ",
        "longitude": 117.089415,
        "latitude": 36.188078,
        "city": "泰安市"
    },
    {
        "name": "中国人民解放军第八十九医院 ",
        "address": "潍坊市北宫西街256号 ",
        "longitude": 119.078967,
        "latitude": 36.731888,
        "city": "潍坊市"
    },
    {
        "name": "中国人民解放军第一Ｏ七中心医院 ",
        "address": "烟台市只楚南路7号 ",
        "longitude": 121.320627,
        "latitude": 37.535646,
        "city": "烟台市"
    },
    {
        "name": "中国人民解放军海军第四Ｏ一医院 ",
        "address": "青岛市闽江路22号 ",
        "longitude": 120.38735,
        "latitude": 36.075274,
        "city": "青岛市"
    },
    {
        "name": "河南中医学院第一附属医院 ",
        "address": "郑州市人民路19号 ",
        "longitude": 113.680968,
        "latitude": 34.764646,
        "city": "郑州市"
    },
    {
        "name": "河南省中医院〓河南中医学院第二附属医院 ",
        "address": "郑州市东风路6号 ",
        "longitude": 113.658487,
        "latitude": 34.806021,
        "city": "郑州市"
    },
    {
        "name": "郑州大学第一附属医院 ",
        "address": "郑州市建设东路1号 ",
        "longitude": 113.651237,
        "latitude": 34.759736,
        "city": "郑州市"
    },
    {
        "name": "河南省人民医院 ",
        "address": "郑州市纬五路7号 ",
        "longitude": 113.7004,
        "latitude": 34.777791,
        "city": "郑州市"
    },
    {
        "name": "河南省肿瘤医院〓河南省肿瘤研究所 ",
        "address": "郑州市东明路127号 ",
        "longitude": 113.707425,
        "latitude": 34.776553,
        "city": "郑州市"
    },
    {
        "name": "郑州市中心医院(原郑州市第四人民医院) ",
        "address": "郑州市桐柏路195号 ",
        "longitude": 113.619653,
        "latitude": 34.756443,
        "city": "郑州市"
    },
    {
        "name": "河南中医学院第六附属医院〓郑州市中医院〓郑州市红十字医院 ",
        "address": "郑州市文化宫路65号 ",
        "longitude": 113.623496,
        "latitude": 34.757165,
        "city": "郑州市"
    },
    {
        "name": "郑州市骨科医院 ",
        "address": "郑州市陇海中路58号 ",
        "longitude": 113.644062,
        "latitude": 34.743225,
        "city": "郑州市"
    },
    {
        "name": "郑州铁路局中心医院 ",
        "address": "郑州市康复前街3号 ",
        "longitude": 113.658022,
        "latitude": 34.748879,
        "city": "郑州市"
    },
    {
        "name": "安阳地区人民医院 ",
        "address": "安阳市灯塔路41号 ",
        "longitude": 114.35613,
        "latitude": 36.113041,
        "city": "安阳市"
    },
    {
        "name": "安阳市人民医院〓安阳市中心医院 ",
        "address": "安阳市解放路中段18号 ",
        "longitude": 114.351807,
        "latitude": 36.110267,
        "city": "安阳市"
    },
    {
        "name": "安阳市中医院 ",
        "address": "安阳市解放路中段 ",
        "longitude": 114.351807,
        "latitude": 36.110267,
        "city": "安阳市"
    },
    {
        "name": "安阳市肿瘤医院 ",
        "address": "安阳市洹滨北路2号 ",
        "longitude": 114.370384,
        "latitude": 36.131518,
        "city": "安阳市"
    },
    {
        "name": "河南省精神病医院〓新乡医学院第二附属医院 ",
        "address": "新乡市建设东路 ",
        "longitude": 113.908633,
        "latitude": 35.32947,
        "city": "新乡市"
    },
    {
        "name": "新乡市中心医院(原河南省第三人民医院) ",
        "address": "新乡市南干道16号 ",
        "longitude": 113.872651,
        "latitude": 35.302018,
        "city": "新乡市"
    },
    {
        "name": "新乡医学院第一附属医院〓河南省结核病医院 ",
        "address": "卫辉市健康路 ",
        "longitude": 114.07344,
        "latitude": 35.416672,
        "city": "卫辉市"
    },
    {
        "name": "许昌市中心医院 ",
        "address": "许昌市健安路30号 ",
        "longitude": 113.835312,
        "latitude": 34.02674,
        "city": "许昌市"
    },
    {
        "name": "平顶山市第一人民医院 ",
        "address": "平顶山市卫东区优越路117号 ",
        "longitude": 113.324909,
        "latitude": 33.746884,
        "city": "平顶山市"
    },
    {
        "name": "平顶山煤业(集团)公司总医院 ",
        "address": "平顶山市矿工中路南1号院 ",
        "longitude": 113.323831,
        "latitude": 33.749479,
        "city": "平顶山市"
    },
    {
        "name": "南阳市中心医院 ",
        "address": "南阳市工农路312号 ",
        "longitude": 112.551271,
        "latitude": 33.021023,
        "city": "南阳市"
    },
    {
        "name": "河南大学淮河医院 ",
        "address": "开封市包公湖北路8号 ",
        "longitude": 114.349131,
        "latitude": 34.800487,
        "city": "开封市"
    },
    {
        "name": "开封市第一人民医院 ",
        "address": "开封市河道街85号 ",
        "longitude": 114.363311,
        "latitude": 34.803248,
        "city": "开封市"
    },
    {
        "name": "河南科技大学第一附属医院 ",
        "address": "洛阳市涧西区景华路24号 ",
        "longitude": 112.404355,
        "latitude": 34.666923,
        "city": "洛阳市"
    },
    {
        "name": "洛阳市中心医院(原洛阳市第二人民医院) ",
        "address": "洛阳市中州中路288号 ",
        "longitude": 112.436967,
        "latitude": 34.674444,
        "city": "洛阳市"
    },
    {
        "name": "洛阳正骨医院 ",
        "address": "洛阳市启明南路1号 ",
        "longitude": 112.509982,
        "latitude": 34.700877,
        "city": "洛阳市"
    },
    {
        "name": "焦作市人民医院 ",
        "address": "焦作市解放中路267号 ",
        "longitude": 113.255755,
        "latitude": 35.251571,
        "city": "焦作市"
    },
    {
        "name": "焦作市第二人民医院 ",
        "address": "焦作市民主南路17号 ",
        "longitude": 113.239967,
        "latitude": 35.234488,
        "city": "焦作市"
    },
    {
        "name": "濮阳市人民医院 ",
        "address": "濮阳市胜利西路189号 ",
        "longitude": 115.033935,
        "latitude": 35.772076,
        "city": "濮阳市"
    },
    {
        "name": "中原油田总医院 ",
        "address": "濮阳市大庆路341号 ",
        "longitude": 115.081886,
        "latitude": 35.77861,
        "city": "濮阳市"
    },
    {
        "name": "周口市中心医院(原周口地区人民医院) ",
        "address": "周口市人民路东26号 ",
        "longitude": 114.668369,
        "latitude": 33.626873,
        "city": "周口市"
    },
    {
        "name": "漯河市第一人民医院〓漯河市中心医院 ",
        "address": "漯河市人民东路54号 ",
        "longitude": 114.074835,
        "latitude": 33.573527,
        "city": "漯河市"
    },
    {
        "name": "武警河南总队医院 ",
        "address": "郑州市康复路中街1号 ",
        "longitude": 113.649644,
        "latitude": 34.75661,
        "city": "郑州市"
    },
    {
        "name": "中国人民解放军一五三中心医院 ",
        "address": "郑州市中原区须水镇 ",
        "longitude": 113.534243,
        "latitude": 34.765582,
        "city": "郑州市"
    },
    {
        "name": "中国人民解放军第四六Ｏ医院(原空军郑州医院) ",
        "address": "郑州市互助路10号 ",
        "longitude": 113.627297,
        "latitude": 34.756094,
        "city": "郑州市"
    },
    {
        "name": "中国人民解放军一五Ｏ中心医院 ",
        "address": "洛阳市 ",
        "longitude": 112.447525,
        "latitude": 34.657368,
        "city": "洛阳市"
    },
    {
        "name": "中国人民解放军第一五二医院 ",
        "address": "平顶山市建设路中段 ",
        "longitude": 113.306226,
        "latitude": 33.743958,
        "city": "平顶山市"
    },
    {
        "name": "中国人民解放军第一五九医院 ",
        "address": "驻马店市风光路南段 ",
        "longitude": 114.043375,
        "latitude": 32.975085,
        "city": "驻马店市"
    },
    {
        "name": "中国人民解放军一六Ｏ医院 ",
        "address": "焦作市工业路东段 ",
        "longitude": 113.253815,
        "latitude": 35.236039,
        "city": "焦作市"
    },
    {
        "name": "中国人民解放军第三七一医院 ",
        "address": "新乡市文化路64号 ",
        "longitude": 113.91269,
        "latitude": 35.307258,
        "city": "新乡市"
    },
    {
        "name": "武汉大学人民医院〓湖北省人民医院 ",
        "address": "武汉市武昌解放路238号 ",
        "longitude": 114.304035,
        "latitude": 30.54186,
        "city": "武汉市"
    },
    {
        "name": "武汉大学中南医院 ",
        "address": "武汉市武昌东湖路169号 ",
        "longitude": 114.359708,
        "latitude": 30.558666,
        "city": "武汉市"
    },
    {
        "name": "武汉大学口腔医院〓湖北省口腔医院 ",
        "address": "武汉市洪山区珞瑜路237号 ",
        "longitude": 114.371322,
        "latitude": 30.528727,
        "city": "武汉市"
    },
    {
        "name": "武汉大学中山医院(原武汉军工总医院) ",
        "address": "武汉市中山大道26号 ",
        "longitude": 114.259891,
        "latitude": 30.575616,
        "city": "武汉市"
    },
    {
        "name": "湖北中医药大学附属医院〓湖北省中医院 ",
        "address": "武汉市花园山4号 ",
        "longitude": 114.314425,
        "latitude": 30.556776,
        "city": "武汉市"
    },
    {
        "name": "华中科技大学同济医学院附属协和医院 ",
        "address": "武汉市解放大道1277号 ",
        "longitude": 114.281057,
        "latitude": 30.589505,
        "city": "武汉市"
    },
    {
        "name": "华中科技大学同济医学院附属同济医院 ",
        "address": "武汉市汉口区解放大道1095号 ",
        "longitude": 114.267833,
        "latitude": 30.584655,
        "city": "武汉市"
    },
    {
        "name": "湖北省妇女儿童医院〓湖北省妇幼保健院 ",
        "address": "武汉市武昌街道口武珞路745号 ",
        "longitude": 114.358079,
        "latitude": 30.533744,
        "city": "武汉市"
    },
    {
        "name": "湖北省肿瘤医院 ",
        "address": "武汉市卓刀泉南路16号 ",
        "longitude": 114.37183,
        "latitude": 30.507225,
        "city": "武汉市"
    },
    {
        "name": "武汉市中西医结合医院〓武汉市第一医院 ",
        "address": "武汉市中山大道375号 ",
        "longitude": 114.29142,
        "latitude": 30.581249,
        "city": "武汉市"
    },
    {
        "name": "武汉市中心医院〓华中科技大学同济医学院附属仁济医院〓武汉市第二医院 ",
        "address": "武汉市江岸区胜利街26号 ",
        "longitude": 114.300574,
        "latitude": 30.586228,
        "city": "武汉市"
    },
    {
        "name": "武汉大学同仁医院〓武汉市第三医院 ",
        "address": "武汉市武昌彭刘杨路241号 ",
        "longitude": 114.308781,
        "latitude": 30.545739,
        "city": "武汉市"
    },
    {
        "name": "武汉市第四医院〓华中科技大学同济医学院附属普爱医院〓武汉市骨科医院 ",
        "address": "武汉市汉正街473号 ",
        "longitude": 114.275335,
        "latitude": 30.570818,
        "city": "武汉市"
    },
    {
        "name": "武汉市中医院 ",
        "address": "武汉市汉口黎黄陂路49号 ",
        "longitude": 114.3042,
        "latitude": 30.594257,
        "city": "武汉市"
    },
    {
        "name": "武汉市妇女儿童医疗保健中心〓武汉市妇幼保健院〓武汉市儿童医院 ",
        "address": "武汉市汉口香港路100号 ",
        "longitude": 114.295214,
        "latitude": 30.607415,
        "city": "武汉市"
    },
    {
        "name": "华中科技大学同济医学院附属精神病医院(原武汉市精神病医院) ",
        "address": "武汉市游艺路70号 ",
        "longitude": 114.281128,
        "latitude": 30.580851,
        "city": "武汉市"
    },
    {
        "name": "武汉市传染病医院〓武汉市肝病医院 ",
        "address": "武汉市江汉区北路18号 ",
        "longitude": 114.266384,
        "latitude": 30.610951,
        "city": "武汉市"
    },
    {
        "name": "武汉科技大学附属医院(原武汉铁路中心医院) ",
        "address": "武汉市武昌区涂家岭9号 ",
        "longitude": 114.332913,
        "latitude": 30.532088,
        "city": "武汉市"
    },
    {
        "name": "武钢职工总医院 ",
        "address": "武汉市青山区冶金大道29号 ",
        "longitude": 114.409646,
        "latitude": 30.636928,
        "city": "武汉市"
    },
    {
        "name": "襄樊市中心医院 ",
        "address": "襄樊市襄城区荆州街39号 ",
        "longitude": 112.162359,
        "latitude": 32.025265,
        "city": "襄樊市"
    },
    {
        "name": "襄樊市第一人民医院〓襄樊市红十字医院 ",
        "address": "襄樊市解放路75号 ",
        "longitude": 112.155066,
        "latitude": 32.039479,
        "city": "襄樊市"
    },
    {
        "name": "襄樊市中医院 ",
        "address": "襄樊市长征路85号 ",
        "longitude": 112.158529,
        "latitude": 32.04214,
        "city": "襄樊市"
    },
    {
        "name": "鄂州市中心医院 ",
        "address": "鄂州市文星路9号 ",
        "longitude": 114.887728,
        "latitude": 30.40482,
        "city": "鄂州市"
    },
    {
        "name": "鄂州市中医院 ",
        "address": "鄂州市鄂城区滨湖北路9号 ",
        "longitude": 114.894814,
        "latitude": 30.398214,
        "city": "鄂州市"
    },
    {
        "name": "孝感市中心医院 ",
        "address": "孝感市广场路6号 ",
        "longitude": 113.919184,
        "latitude": 30.933377,
        "city": "孝感市"
    },
    {
        "name": "黄冈市第一人民医院 ",
        "address": "黄冈市考棚街11号 ",
        "longitude": 114.880189,
        "latitude": 30.451909,
        "city": "黄冈市"
    },
    {
        "name": "黄石市中心医院(原黄石市第三医院) ",
        "address": "黄石市天津路212号 ",
        "longitude": 115.094912,
        "latitude": 30.226967,
        "city": "黄石市"
    },
    {
        "name": "黄石市中医院 ",
        "address": "黄石市广场路12号 ",
        "longitude": 115.101142,
        "latitude": 30.216496,
        "city": "黄石市"
    },
    {
        "name": "咸宁医学院附属第一医院〓咸宁市中心医院 ",
        "address": "咸宁市温泉路39号 ",
        "longitude": 114.340125,
        "latitude": 29.830933,
        "city": "咸宁市"
    },
    {
        "name": "荆州市中心医院 ",
        "address": "荆州市荆中路72号 ",
        "longitude": 112.199801,
        "latitude": 30.360879,
        "city": "荆州市"
    },
    {
        "name": "荆州市第一人民医院 ",
        "address": "荆州市航空路8号 ",
        "longitude": 112.265791,
        "latitude": 30.314702,
        "city": "荆州市"
    },
    {
        "name": "荆州市中医院 ",
        "address": "荆州市江津东路172号 ",
        "longitude": 112.278733,
        "latitude": 30.316297,
        "city": "荆州市"
    },
    {
        "name": "宜昌市中心医院 ",
        "address": "宜昌市夷陵路127号 ",
        "longitude": 111.314915,
        "latitude": 30.690792,
        "city": "宜昌市"
    },
    {
        "name": "宜昌市第一人民医院 ",
        "address": "宜昌市湖堤街1号 ",
        "longitude": 111.296802,
        "latitude": 30.700013,
        "city": "宜昌市"
    },
    {
        "name": "宜昌市第二人民医院〓宜昌市肿瘤医院 ",
        "address": "宜昌市西陵一路58号 ",
        "longitude": 111.301014,
        "latitude": 30.709191,
        "city": "宜昌市"
    },
    {
        "name": "宜昌市中医院〓宜昌市中西医结合医院 ",
        "address": "宜昌市胜利三路2号 ",
        "longitude": 111.305586,
        "latitude": 30.690724,
        "city": "宜昌市"
    },
    {
        "name": "三峡大学葛洲坝中心医院(原中国葛洲坝集团中心医院) ",
        "address": "宜昌市樵湖一路60号 ",
        "longitude": 111.293576,
        "latitude": 30.724415,
        "city": "宜昌市"
    },
    {
        "name": "湖北省十堰市人民医院 ",
        "address": "十堰市朝阳中路23号 ",
        "longitude": 110.790011,
        "latitude": 32.655618,
        "city": "十堰市"
    },
    {
        "name": "十堰市中医院 ",
        "address": "十堰市丹江路24号 ",
        "longitude": 110.829166,
        "latitude": 32.590784,
        "city": "十堰市"
    },
    {
        "name": "十堰市太和医院〓郧阳医学院附属太和医院 ",
        "address": "十堰市人民南路29号 ",
        "longitude": 110.784442,
        "latitude": 32.628141,
        "city": "十堰市"
    },
    {
        "name": "东风汽车公司总医院〓郧阳医学院附属东风医院 ",
        "address": "十堰市大岭路10号 ",
        "longitude": 110.77736,
        "latitude": 32.659813,
        "city": "十堰市"
    },
    {
        "name": "中国石化集团江汉石油管理局中心医院(广华) ",
        "address": "潜江市安康路3号 ",
        "longitude": 112.705826,
        "latitude": 30.444254,
        "city": "潜江市"
    },
    {
        "name": "中国人民解放军第一六一中心医院 ",
        "address": "武汉市汉口黄浦路68号 ",
        "longitude": 114.317478,
        "latitude": 30.621366,
        "city": "武汉市"
    },
    {
        "name": "中国人民解放军四五七医院(原空军汉口医院) ",
        "address": "武汉市工农兵路83号 ",
        "longitude": 114.315271,
        "latitude": 30.628556,
        "city": "武汉市"
    },
    {
        "name": "广州军区武汉总医院〓武汉华中医院 ",
        "address": "武汉市洪山区武珞路627号 ",
        "longitude": 114.350277,
        "latitude": 30.535834,
        "city": "武汉市"
    },
    {
        "name": "武警湖北总队医院 ",
        "address": "武汉市武昌民主路413号 ",
        "longitude": 114.315658,
        "latitude": 30.550676,
        "city": "武汉市"
    },
    {
        "name": "中南大学湘雅医院 ",
        "address": "长沙市湘雅路87号 ",
        "longitude": 112.989927,
        "latitude": 28.219106,
        "city": "长沙市"
    },
    {
        "name": "中南大学湘雅二医院 ",
        "address": "长沙市人民中路86号 ",
        "longitude": 112.996569,
        "latitude": 28.191367,
        "city": "长沙市"
    },
    {
        "name": "中南大学湘雅三医院 ",
        "address": "长沙市桐梓坡路 ",
        "longitude": 112.940864,
        "latitude": 28.22393,
        "city": "长沙市"
    },
    {
        "name": "湖南中医学院第一附属医院 ",
        "address": "长沙市韶山中路95号 ",
        "longitude": 113.00113,
        "latitude": 28.171068,
        "city": "长沙市"
    },
    {
        "name": "湖南中医学院第二附属医院〓湖南省中医院 ",
        "address": "长沙市蔡锷北路233号 ",
        "longitude": 112.987898,
        "latitude": 28.208943,
        "city": "长沙市"
    },
    {
        "name": "湖南省中医研究院附属医院 ",
        "address": "长沙市麓山路58号 ",
        "longitude": 112.95773,
        "latitude": 28.200918,
        "city": "长沙市"
    },
    {
        "name": "湖南省人民医院 ",
        "address": "长沙市解放西路61号 ",
        "longitude": 112.988175,
        "latitude": 28.1967,
        "city": "长沙市"
    },
    {
        "name": "湖南省妇幼保健院 ",
        "address": "长沙市湘春路23号 ",
        "longitude": 112.989551,
        "latitude": 28.214088,
        "city": "长沙市"
    },
    {
        "name": "湖南省儿童医院〓湖南省红十字会医院 ",
        "address": "长沙市雨花梓园路82号 ",
        "longitude": 112.995297,
        "latitude": 28.179551,
        "city": "长沙市"
    },
    {
        "name": "湖南省肿瘤医院 ",
        "address": "长沙市咸嘉湖2号 ",
        "longitude": 112.944731,
        "latitude": 28.217635,
        "city": "长沙市"
    },
    {
        "name": "岳阳市第一人民医院 ",
        "address": "岳阳市岳东路39号 ",
        "longitude": 113.146196,
        "latitude": 29.378007,
        "city": "岳阳市"
    },
    {
        "name": "湘潭市中心医院〓湘潭大学第一附属医院 ",
        "address": "湘潭市雨湖路210号 ",
        "longitude": 112.91819,
        "latitude": 27.865422,
        "city": "湘潭市"
    },
    {
        "name": "株洲市第一医院 ",
        "address": "株洲市车站路24号 ",
        "longitude": 113.158144,
        "latitude": 27.84083,
        "city": "株洲市"
    },
    {
        "name": "株洲市中医院 ",
        "address": "株洲市人民中路50号 ",
        "longitude": 113.160267,
        "latitude": 27.847246,
        "city": "株洲市"
    },
    {
        "name": "南华大学附属第一医院(原衡阳医学院第一附属医院) ",
        "address": "衡阳市船山路69号 ",
        "longitude": 112.608425,
        "latitude": 26.908898,
        "city": "衡阳市"
    },
    {
        "name": "南华大学附属第二医院(原衡阳医学院第二附属医院) ",
        "address": "衡阳市解放路60号 ",
        "longitude": 112.613436,
        "latitude": 26.90216,
        "city": "衡阳市"
    },
    {
        "name": "衡阳市中心医院 ",
        "address": "衡阳市华新开发区芙蓉路18号 ",
        "longitude": 112.57578,
        "latitude": 26.894749,
        "city": "衡阳市"
    },
    {
        "name": "常德市第一人民医院 ",
        "address": "常德市人民东路388号 ",
        "longitude": 111.714644,
        "latitude": 29.024353,
        "city": "常德市"
    },
    {
        "name": "益阳市中心医院〓益阳市第一人民医院(原益阳地区人民医院) ",
        "address": "益阳市康复南路8号 ",
        "longitude": 112.359565,
        "latitude": 28.563587,
        "city": "益阳市"
    },
    {
        "name": "益阳市第二人民医院 ",
        "address": "益阳市五一西路74号 ",
        "longitude": 112.340146,
        "latitude": 28.597055,
        "city": "益阳市"
    },
    {
        "name": "娄底市中心医院 ",
        "address": "娄底市长青中街51号 ",
        "longitude": 112.022415,
        "latitude": 27.735823,
        "city": "娄底市"
    },
    {
        "name": "邵阳市中心医院 ",
        "address": "邵阳市红旗路乾元巷36号 ",
        "longitude": 111.466794,
        "latitude": 27.240079,
        "city": "邵阳市"
    },
    {
        "name": "怀化市第一人民医院〓南华大学附属怀化医院 ",
        "address": "怀化市锦溪南路144号 ",
        "longitude": 110.004506,
        "latitude": 27.550223,
        "city": "怀化市"
    },
    {
        "name": "中国人民解放军第一六三医院 ",
        "address": "长沙市洪山桥1号 ",
        "longitude": 113.023234,
        "latitude": 28.25036,
        "city": "长沙市"
    },
    {
        "name": "中国人民解放军一六九中心医院 ",
        "address": "衡阳市珠晖区一六村1号 ",
        "longitude": 112.68849,
        "latitude": 26.882225,
        "city": "衡阳市"
    },
    {
        "name": "中山大学附属第一医院 ",
        "address": "广州市中山二路58号 ",
        "longitude": 113.296381,
        "latitude": 23.131801,
        "city": "广州市"
    },
    {
        "name": "中山大学附属第二医院 ",
        "address": "广州市沿江西路107号 ",
        "longitude": 113.262499,
        "latitude": 23.115284,
        "city": "广州市"
    },
    {
        "name": "中山大学附属第三医院 ",
        "address": "广州市天河区天河路600号 ",
        "longitude": 113.34807,
        "latitude": 23.140937,
        "city": "广州市"
    },
    {
        "name": "中山大学肿瘤医院 ",
        "address": "广州市东风东路651号 ",
        "longitude": 113.297883,
        "latitude": 23.137506,
        "city": "广州市"
    },
    {
        "name": "中山大学中山眼科中心 ",
        "address": "广州市先烈南路54号 ",
        "longitude": 113.299533,
        "latitude": 23.140243,
        "city": "广州市"
    },
    {
        "name": "广州中医药大学第一附属医院 ",
        "address": "广州市白云区机场路16号 ",
        "longitude": 113.271021,
        "latitude": 23.164914,
        "city": "广州市"
    },
    {
        "name": "广州中医药大学第二附属医院〓广东省中医院 ",
        "address": "广州市天德路111号 ",
        "longitude": 113.30765,
        "latitude": 23.120049,
        "city": "广州市"
    },
    {
        "name": "暨南大学医学院第一附属医院〓广州华侨医院 ",
        "address": "广州市黄浦大道西613号 ",
        "longitude": 113.30765,
        "latitude": 23.120049,
        "city": "广州市"
    },
    {
        "name": "南方医科大学南方医院 ",
        "address": "广州市广州大道北1838号 ",
        "longitude": 113.335063,
        "latitude": 23.193095,
        "city": "广州市"
    },
    {
        "name": "南方医科大学珠江医院 ",
        "address": "广州市工业大道中253号 ",
        "longitude": 113.30765,
        "latitude": 23.120049,
        "city": "广州市"
    },
    {
        "name": "广东省人民医院〓广东省精神卫生研究所〓广东省心血管病研究所 ",
        "address": "广州市东山区中山二路106号 ",
        "longitude": 113.293646,
        "latitude": 23.131662,
        "city": "广州市"
    },
    {
        "name": "广东省妇幼保健院〓广州医学院附属广东省妇儿医院 ",
        "address": "广州市广园西路13号 ",
        "longitude": 113.2551,
        "latitude": 23.154014,
        "city": "广州市"
    },
    {
        "name": "广州医学院第一附属医院(原广州市工人医院) ",
        "address": "广州市沿江西路151号 ",
        "longitude": 113.268896,
        "latitude": 23.118414,
        "city": "广州市"
    },
    {
        "name": "广州医学院第二附属医院 ",
        "address": "广州市昌岗东路250号 ",
        "longitude": 113.283791,
        "latitude": 23.096279,
        "city": "广州市"
    },
    {
        "name": "广州医学院附属广州市第一人民医院 ",
        "address": "广州市越秀区盘福路1号 ",
        "longitude": 113.264722,
        "latitude": 23.137248,
        "city": "广州市"
    },
    {
        "name": "广州市第二人民医院 ",
        "address": "广州市多宝路63号 ",
        "longitude": 113.240806,
        "latitude": 23.122678,
        "city": "广州市"
    },
    {
        "name": "广州市中医院 ",
        "address": "广州市珠玑路16号 ",
        "longitude": 113.250204,
        "latitude": 23.114828,
        "city": "广州市"
    },
    {
        "name": "广州市妇婴医院〓广州医学院附属妇婴医院 ",
        "address": "广州市人民中路402号 ",
        "longitude": 113.260883,
        "latitude": 23.129807,
        "city": "广州市"
    },
    {
        "name": "广州市儿童医院 ",
        "address": "广州市人民中路318号 ",
        "longitude": 113.259692,
        "latitude": 23.125704,
        "city": "广州市"
    },
    {
        "name": "广州市红十字会医院〓暨南大学医学院第四附属医院 ",
        "address": "广州市同福中路396号 ",
        "longitude": 113.268045,
        "latitude": 23.111593,
        "city": "广州市"
    },
    {
        "name": "广州市胸科医院〓广州市结核病医院 ",
        "address": "广州市横枝岗路62号 ",
        "longitude": 113.296367,
        "latitude": 23.153152,
        "city": "广州市"
    },
    {
        "name": "广州市精神病医院〓广州市脑科医院 ",
        "address": "广州市明心路36号 ",
        "longitude": 113.245878,
        "latitude": 23.10406,
        "city": "广州市"
    },
    {
        "name": "广东药学院附属第一医院(原广州铁路中心医院) ",
        "address": "广州市农林下路19号 ",
        "longitude": 113.302923,
        "latitude": 23.133913,
        "city": "广州市"
    },
    {
        "name": "广东三九脑科医院(民营) ",
        "address": "广州市沙太路158号 ",
        "longitude": 113.338683,
        "latitude": 23.181097,
        "city": "广州市"
    },
    {
        "name": "江门市中心医院 ",
        "address": "江门市海旁街23号 ",
        "longitude": 113.078125,
        "latitude": 22.575117,
        "city": "江门市"
    },
    {
        "name": "江门市五邑中医院(原江门市中医院) ",
        "address": "江门市华园东路30号 ",
        "longitude": 113.081373,
        "latitude": 22.584448,
        "city": "江门市"
    },
    {
        "name": "韶关市粤北人民医院 ",
        "address": "韶关市惠民南路 ",
        "longitude": 113.596251,
        "latitude": 24.801109,
        "city": "韶关市"
    },
    {
        "name": "惠州市中心人民医院〓广东医学院附属惠州医院 ",
        "address": "惠州市鹅岭北路41号 ",
        "longitude": 114.404921,
        "latitude": 23.089087,
        "city": "惠州市"
    },
    {
        "name": "梅州市人民医院〓梅州市黄塘医院 ",
        "address": "梅州市梅江区黄塘路 ",
        "longitude": 116.098923,
        "latitude": 24.320737,
        "city": "梅州市"
    },
    {
        "name": "汕头大学医学院第一附属医院 ",
        "address": "汕头市长平路57号 ",
        "longitude": 116.713359,
        "latitude": 23.367873,
        "city": "汕头市"
    },
    {
        "name": "汕头市中心医院 ",
        "address": "汕头市外马路114号 ",
        "longitude": 116.700331,
        "latitude": 23.362215,
        "city": "汕头市"
    },
    {
        "name": "深圳市人民医院〓暨南大学医学院第二附属医院 ",
        "address": "深圳市东门北路1017号 ",
        "longitude": 114.135216,
        "latitude": 22.562289,
        "city": "深圳市"
    },
    {
        "name": "广州中医药大学深圳附属医院〓深圳市中医院 ",
        "address": "深圳市福田区福华路1号 ",
        "longitude": 114.091499,
        "latitude": 22.543468,
        "city": "深圳市"
    },
    {
        "name": "深圳市第二人民医院(原深圳市红会医院) ",
        "address": "深圳市笋岗西路3002号 ",
        "longitude": 114.092527,
        "latitude": 22.562554,
        "city": "深圳市"
    },
    {
        "name": "珠海市人民医院〓暨南大学医学院第三附属医院 ",
        "address": "珠海市康宁路79号 ",
        "longitude": 113.582112,
        "latitude": 22.279419,
        "city": "珠海市"
    },
    {
        "name": "广东省中医院珠海医院 ",
        "address": "珠海市景乐路53号 ",
        "longitude": 113.585165,
        "latitude": 22.257562,
        "city": "珠海市"
    },
    {
        "name": "珠海市妇幼保健院 ",
        "address": "珠海市香洲区柠溪路543号 ",
        "longitude": 113.565772,
        "latitude": 22.27537,
        "city": "珠海市"
    },
    {
        "name": "佛山市第一人民医院 ",
        "address": "佛山市文沙路91号 ",
        "longitude": 113.127236,
        "latitude": 23.055396,
        "city": "佛山市"
    },
    {
        "name": "佛山市中医院 ",
        "address": "佛山市亲仁路6号 ",
        "longitude": 113.116935,
        "latitude": 23.041839,
        "city": "佛山市"
    },
    {
        "name": "佛山市南海区人民医院 ",
        "address": "佛山市南海区佛平路40号 ",
        "longitude": 113.173412,
        "latitude": 23.042776,
        "city": "佛山市"
    },
    {
        "name": "肇庆市第一人民医院 ",
        "address": "肇庆市城中路174号 ",
        "longitude": 112.465801,
        "latitude": 23.0535,
        "city": "肇庆市"
    },
    {
        "name": "广东医学院附属医院 ",
        "address": "湛江市霞山区人民大道南57号 ",
        "longitude": 110.409339,
        "latitude": 21.210533,
        "city": "湛江市"
    },
    {
        "name": "广东省农垦中心医院 ",
        "address": "湛江市人民大道中2号 ",
        "longitude": 110.409277,
        "latitude": 21.217964,
        "city": "湛江市"
    },
    {
        "name": "广东药学院附属中山医院〓中山市人民医院 ",
        "address": "中山市孙文中路2号 ",
        "longitude": 113.387131,
        "latitude": 22.530149,
        "city": "中山市"
    },
    {
        "name": "中山市中医院 ",
        "address": "中山市悦来南南安路2号 ",
        "longitude": 113.376858,
        "latitude": 22.515702,
        "city": "中山市"
    },
    {
        "name": "清远市人民医院〓暨南大学医学院第五附属医院 ",
        "address": "清远市曙光二路22号 ",
        "longitude": 113.037583,
        "latitude": 23.717055,
        "city": "清远市"
    },
    {
        "name": "东莞市人民医院 ",
        "address": "东莞市沙地塘88号 ",
        "longitude": 113.755673,
        "latitude": 23.060446,
        "city": "东莞市"
    },
    {
        "name": "东莞市中医院 ",
        "address": "东莞市城区环城路61号 ",
        "longitude": 113.763434,
        "latitude": 23.043024,
        "city": "东莞市"
    },
    {
        "name": "阳江市人民医院 ",
        "address": "阳江市江城区东山南路14号 ",
        "longitude": 111.978015,
        "latitude": 21.851088,
        "city": "阳江市"
    },
    {
        "name": "茂名市人民医院 ",
        "address": "茂名市为民路101号 ",
        "longitude": 110.917034,
        "latitude": 21.664191,
        "city": "茂名市"
    },
    {
        "name": "茂名市中医院 ",
        "address": "茂名市油城五路7号 ",
        "longitude": 110.926418,
        "latitude": 21.669544,
        "city": "茂名市"
    },
    {
        "name": "广州军区广州总医院 ",
        "address": "广州市流花路111号 ",
        "longitude": 113.261231,
        "latitude": 23.14624,
        "city": "广州市"
    },
    {
        "name": "中国人民武装警察部队广东省总队医院 ",
        "address": "广州市燕岭路268号 ",
        "longitude": 113.338476,
        "latitude": 23.168641,
        "city": "广州市"
    },
    {
        "name": "中国人民解放军广州军区一五七中心医院 ",
        "address": "广州市沙河梅花园 ",
        "longitude": 113.326857,
        "latitude": 23.185204,
        "city": "广州市"
    },
    {
        "name": "中国人民解放军第四二一医院 ",
        "address": "广州市新港中路468号 ",
        "longitude": 113.342012,
        "latitude": 23.101351,
        "city": "广州市"
    },
    {
        "name": "中国人民解放军第四五八医院(空军广州中心医院) ",
        "address": "广州市东风东路801号 ",
        "longitude": 113.318909,
        "latitude": 23.137503,
        "city": "广州市"
    },
    {
        "name": "中国人民解放军第一七三医院 ",
        "address": "惠州市鹅岭南路20号 ",
        "longitude": 114.399889,
        "latitude": 23.081332,
        "city": "惠州市"
    },
    {
        "name": "中国人民解放军第四二二医院 ",
        "address": "湛江市海滨三路40号 ",
        "longitude": 110.424141,
        "latitude": 21.228833,
        "city": "湛江市"
    },
    {
        "name": "中国人民解放军第一九六医院 ",
        "address": "湛江市东坎区北桥路14号 ",
        "longitude": 110.369253,
        "latitude": 21.292686,
        "city": "湛江市"
    },
    {
        "name": "广西医科大学第一附属医院 ",
        "address": "南宁市双拥路6号 ",
        "longitude": 108.348805,
        "latitude": 22.802205,
        "city": "南宁市"
    },
    {
        "name": "广西医科大学附属肿瘤医院〓广西肿瘤防治研究所 ",
        "address": "南宁市滨湖路6号 ",
        "longitude": 108.347935,
        "latitude": 22.803292,
        "city": "南宁市"
    },
    {
        "name": "广西医科大学附属口腔医院 ",
        "address": "南宁市滨湖路10号 ",
        "longitude": 108.353164,
        "latitude": 22.804255,
        "city": "南宁市"
    },
    {
        "name": "广西中医学院第一附属医院〓广西壮族自治区中医院 ",
        "address": "南宁市园湖路2号 ",
        "longitude": 108.354068,
        "latitude": 22.815606,
        "city": "南宁市"
    },
    {
        "name": "广西中医学院附属瑞康医院〓广西中西医结合医院(原广西中医学院附属第二医院) ",
        "address": "南宁市华东路10号 ",
        "longitude": 108.320688,
        "latitude": 22.827604,
        "city": "南宁市"
    },
    {
        "name": "广西壮族自治区人民医院〓广西壮族自治区红十字会医院 ",
        "address": "南宁市桃源路6号 ",
        "longitude": 108.334248,
        "latitude": 22.809512,
        "city": "南宁市"
    },
    {
        "name": "广西壮族自治区妇幼保健院 ",
        "address": "南宁市新阳路225号 ",
        "longitude": 108.298919,
        "latitude": 22.823544,
        "city": "南宁市"
    },
    {
        "name": "广西民族医院 ",
        "address": "南宁市明秀东路34号 ",
        "longitude": 108.344363,
        "latitude": 22.858023,
        "city": "南宁市"
    },
    {
        "name": "南宁市第一人民医院 ",
        "address": "南宁市七星路89号 ",
        "longitude": 108.33192,
        "latitude": 22.815654,
        "city": "南宁市"
    },
    {
        "name": "广西医科大学第三附属医院〓南宁市第二人民医院 ",
        "address": "南宁市淡村路13号 ",
        "longitude": 108.312283,
        "latitude": 22.802969,
        "city": "南宁市"
    },
    {
        "name": "广西医科大学附属第五医院〓柳州市人民医院 ",
        "address": "柳州市广场路8号 ",
        "longitude": 109.417799,
        "latitude": 24.326102,
        "city": "柳州市"
    },
    {
        "name": "柳州市中医院〓广西中医学院第三附属医院 ",
        "address": "柳州市解放北路32号 ",
        "longitude": 109.419811,
        "latitude": 24.324404,
        "city": "柳州市"
    },
    {
        "name": "柳州市中西医结合医院 ",
        "address": "柳州市鱼峰区荣军路115号 ",
        "longitude": 109.42681,
        "latitude": 24.308474,
        "city": "柳州市"
    },
    {
        "name": "柳州市工人医院〓广西医科大学第四附属医院 ",
        "address": "柳州市柳石路1号 ",
        "longitude": 109.416422,
        "latitude": 24.304019,
        "city": "柳州市"
    },
    {
        "name": "柳州市铁路中心医院 ",
        "address": "柳州市柳南区飞鹅路利民区14号 ",
        "longitude": 109.404059,
        "latitude": 24.313942,
        "city": "柳州市"
    },
    {
        "name": "桂林医学院附属医院 ",
        "address": "桂林市乐群路95号 ",
        "longitude": 110.302693,
        "latitude": 25.286863,
        "city": "桂林市"
    },
    {
        "name": "桂林市人民医院 ",
        "address": "桂林市文明路12号 ",
        "longitude": 110.30048,
        "latitude": 25.276368,
        "city": "桂林市"
    },
    {
        "name": "桂林市中医院 ",
        "address": "桂林市临桂路2号 ",
        "longitude": 110.297084,
        "latitude": 25.278238,
        "city": "桂林市"
    },
    {
        "name": "桂林南溪山医院 ",
        "address": "桂林市崇信路46号 ",
        "longitude": 110.292912,
        "latitude": 25.252245,
        "city": "桂林市"
    },
    {
        "name": "梧州市中医院 ",
        "address": "梧州市新兴二路142号 ",
        "longitude": 111.271183,
        "latitude": 23.483283,
        "city": "梧州市"
    },
    {
        "name": "梧州市工人医院 ",
        "address": "梧州市万秀区高地路南三巷1号 ",
        "longitude": 111.328596,
        "latitude": 23.478333,
        "city": "梧州市"
    },
    {
        "name": "玉林市第一人民医院〓广西医科大学第六附属医院 ",
        "address": "玉林市教育中路19号 ",
        "longitude": 110.174412,
        "latitude": 22.65236,
        "city": "玉林市"
    },
    {
        "name": "玉林市骨科医院 ",
        "address": "玉林市教育中路597号 ",
        "longitude": 110.159246,
        "latitude": 22.637875,
        "city": "玉林市"
    },
    {
        "name": "百色地区人民医院 ",
        "address": "百色市城乡路8号 ",
        "longitude": 106.626342,
        "latitude": 23.899405,
        "city": "百色市"
    },
    {
        "name": "右江民族医学院附属医院 ",
        "address": "百色市中山二路18号 ",
        "longitude": 106.618326,
        "latitude": 23.899212,
        "city": "百色市"
    },
    {
        "name": "钦州市第一人民医院 ",
        "address": "钦州市钦南区前进路6号 ",
        "longitude": 108.637082,
        "latitude": 21.964349,
        "city": "钦州市"
    },
    {
        "name": "钦州市第二人民医院 ",
        "address": "钦州市文峰南路219号 ",
        "longitude": 108.62273,
        "latitude": 21.960932,
        "city": "钦州市"
    },
    {
        "name": "河池地区人民医院 ",
        "address": "宜州市庆远镇桂鱼路124号 ",
        "longitude": 108.667359,
        "latitude": 24.499846,
        "city": "宜州市"
    },
    {
        "name": "北海市人民医院 ",
        "address": "北海市和平路83号 ",
        "longitude": 109.12243,
        "latitude": 21.48668,
        "city": "北海市"
    },
    {
        "name": "中国人民解放军三Ｏ三医院 ",
        "address": "南宁市植物路52号 ",
        "longitude": 108.33806,
        "latitude": 22.801366,
        "city": "南宁市"
    },
    {
        "name": "中国人民解放军一八一医院〓桂林漓江医院 ",
        "address": "桂林市民主路174号 ",
        "longitude": 110.299051,
        "latitude": 25.266091,
        "city": "桂林市"
    },
    {
        "name": "海南医学院附属医院 ",
        "address": "海口市新华区龙华路31号 ",
        "longitude": 110.339997,
        "latitude": 20.035726,
        "city": "海口市"
    },
    {
        "name": "海南省人民医院 ",
        "address": "海口市秀英区秀华路19号 ",
        "longitude": 110.296536,
        "latitude": 20.012975,
        "city": "海口市"
    },
    {
        "name": "海南省中医院 ",
        "address": "海口市和平北路47号 ",
        "longitude": 110.360545,
        "latitude": 20.049595,
        "city": "海口市"
    },
    {
        "name": "海口市人民医院〓中南大学湘雅医学院附属海口医院 ",
        "address": "海口市人民大道43号 ",
        "longitude": 110.347011,
        "latitude": 20.065993,
        "city": "海口市"
    },
    {
        "name": "海南省工人医院〓海南省农垦总局医院 ",
        "address": "海口市白水塘路48号 ",
        "longitude": 110.306342,
        "latitude": 19.986573,
        "city": "海口市"
    },
    {
        "name": "海南省第三人民医院〓海南省农垦三亚医院 ",
        "address": "三亚市解放四路128号 ",
        "longitude": 109.502849,
        "latitude": 18.272985,
        "city": "三亚市"
    },
    {
        "name": "中国人民解放军一八七中心医院 ",
        "address": "海口市龙昆南路100号 ",
        "longitude": 110.347228,
        "latitude": 19.995298,
        "city": "海口市"
    },
    {
        "name": "重庆医科大学附属第一医院 ",
        "address": "重庆市渝中区友谊路1号 ",
        "longitude": 106.519001,
        "latitude": 29.536208,
        "city": "重庆市 "
    },
    {
        "name": "重庆医科大学附属第二医院 ",
        "address": "重庆市渝中区临江路74号 ",
        "longitude": 106.581103,
        "latitude": 29.565985,
        "city": "重庆市 "
    },
    {
        "name": "重庆医科大学附属儿童医院 ",
        "address": "重庆市市中区中山二路136号 ",
        "longitude": 106.561033,
        "latitude": 29.561752,
        "city": "重庆市 "
    },
    {
        "name": "重庆市第一人民医院〓重庆市中西医结合医院 ",
        "address": "重庆市渝中区道门口街40号 ",
        "longitude": 106.546967,
        "latitude": 29.555236,
        "city": "重庆市 "
    },
    {
        "name": "重庆市第三人民医院 ",
        "address": "重庆市渝中区枇杷山正街104号 ",
        "longitude": 106.561271,
        "latitude": 29.559198,
        "city": "重庆市 "
    },
    {
        "name": "重庆市第四人民医院 ",
        "address": "重庆市渝中区健康路1号 ",
        "longitude": 106.552503,
        "latitude": 29.559307,
        "city": "重庆市 "
    },
    {
        "name": "重庆市第五人民医院(原重庆仁济医院) ",
        "address": "重庆市南岸区仁济路24号 ",
        "longitude": 106.606213,
        "latitude": 29.575474,
        "city": "重庆市 "
    },
    {
        "name": "重庆市第九人民医院〓重庆医科大学北碚附属医院 ",
        "address": "重庆市北碚区嘉陵村69号 ",
        "longitude": 106.45207,
        "latitude": 29.828658,
        "city": "重庆市 "
    },
    {
        "name": "重庆市中医研究所〓重庆市第一中医院〓重庆市中医研究所附院 ",
        "address": "重庆市渝中区北区路1号 ",
        "longitude": 106.575593,
        "latitude": 29.567409,
        "city": "重庆市 "
    },
    {
        "name": "重庆市中医院 ",
        "address": "重庆市渝中区民族路88号 ",
        "longitude": 106.587509,
        "latitude": 29.567049,
        "city": "重庆市 "
    },
    {
        "name": "重庆市妇幼保健院〓重庆市妇产科医院 ",
        "address": "重庆市七星岗金汤街64号 ",
        "longitude": 106.572901,
        "latitude": 29.560419,
        "city": "重庆市 "
    },
    {
        "name": "重庆三峡中心医院 ",
        "address": "重庆市万州区新城路165号 ",
        "longitude": 108.389965,
        "latitude": 30.811784,
        "city": "重庆市 "
    },
    {
        "name": "重庆市红十字会医院 ",
        "address": "重庆市江北区红会村1号 ",
        "longitude": 106.713615,
        "latitude": 29.619318,
        "city": "重庆市 "
    },
    {
        "name": "长安汽车有限责任公司第二职工医院 ",
        "address": "重庆市江北区建新东路260号 ",
        "longitude": 106.562338,
        "latitude": 29.583605,
        "city": "重庆市 "
    },
    {
        "name": "重庆市肿瘤医院〓重庆市肿瘤研究所 ",
        "address": "重庆市沙坪坝区汉渝路181号 ",
        "longitude": 106.482323,
        "latitude": 29.566269,
        "city": "重庆市 "
    },
    {
        "name": "重庆市中山医院 ",
        "address": "重庆市渝中区中山一路312号 ",
        "longitude": 106.5658,
        "latitude": 29.562315,
        "city": "重庆市 "
    },
    {
        "name": "重庆涪陵中心医院〓重庆医科大学涪陵附属医院 ",
        "address": "重庆市涪陵区高笋塘路2号 ",
        "longitude": 107.403688,
        "latitude": 29.709998,
        "city": "重庆市 "
    },
    {
        "name": "第三军医大学第一附属医院〓重庆市西南医院 ",
        "address": "重庆沙坪坝区高滩岩正街30号 ",
        "longitude": 106.454327,
        "latitude": 29.541764,
        "city": "重庆市 "
    },
    {
        "name": "第三军医大学第二附属医院〓重庆新桥医院 ",
        "address": "重庆沙坪坝区新桥街 ",
        "longitude": 106.374805,
        "latitude": 29.630548,
        "city": "重庆市 "
    },
    {
        "name": "第三军医大学第三附属医院〓重庆市大坪医院 ",
        "address": "重庆渝中区大坪长江支路10号 ",
        "longitude": 106.529038,
        "latitude": 29.548239,
        "city": "重庆市 "
    },
    {
        "name": "中国人民解放军三二四医院 ",
        "address": "重庆江北区建新东路29号 ",
        "longitude": 106.546821,
        "latitude": 29.580376,
        "city": "重庆市 "
    },
    {
        "name": "武警重庆总队医院 ",
        "address": "重庆南岸区弹子石卫国路90号 ",
        "longitude": 106.594127,
        "latitude": 29.589106,
        "city": "重庆市 "
    },
    {
        "name": "四川大学华西医院 ",
        "address": "成都市武侯区国学巷37号 ",
        "longitude": 104.06904,
        "latitude": 30.649263,
        "city": "成都市"
    },
    {
        "name": "四川大学华西第二医院〓华西妇产儿童医院 ",
        "address": "成都市人民南路三段20号 ",
        "longitude": 104.072247,
        "latitude": 30.645244,
        "city": "成都市"
    },
    {
        "name": "四川大学华西第三医院 ",
        "address": "成都市二环路南三段 ",
        "longitude": 104.058063,
        "latitude": 30.628763,
        "city": "成都市"
    },
    {
        "name": "四川大学华西口腔医院 ",
        "address": "成都市人民南路三段14号 ",
        "longitude": 104.072475,
        "latitude": 30.649344,
        "city": "成都市"
    },
    {
        "name": "四川省人民医院 ",
        "address": "成都市一环路西二段32号 ",
        "longitude": 104.046893,
        "latitude": 30.669862,
        "city": "成都市"
    },
    {
        "name": "四川省第二人民医院〓四川省肿瘤医院 ",
        "address": "成都市人民南路四段55号 ",
        "longitude": 104.077272,
        "latitude": 30.61485,
        "city": "成都市"
    },
    {
        "name": "成都中医药大学附属医院 ",
        "address": "成都市十二桥路39-41号院 ",
        "longitude": 104.048379,
        "latitude": 30.672137,
        "city": "成都市"
    },
    {
        "name": "四川省妇幼保健院〓四川省妇女儿童医院 ",
        "address": "成都市抚琴西路338号 ",
        "longitude": 104.037431,
        "latitude": 30.687783,
        "city": "成都市"
    },
    {
        "name": "成都市第一人民医院〓成都市中西医结合医院 ",
        "address": "成都市春熙路东段2号 ",
        "longitude": 104.08408,
        "latitude": 30.661361,
        "city": "成都市"
    },
    {
        "name": "成都市第二人民医院 ",
        "address": "成都市庆云南街10号 ",
        "longitude": 104.092958,
        "latitude": 30.666276,
        "city": "成都市"
    },
    {
        "name": "成都市第三人民医院 ",
        "address": "成都市青羊区青龙街82号 ",
        "longitude": 104.069759,
        "latitude": 30.676064,
        "city": "成都市"
    },
    {
        "name": "成都市妇幼保健院 ",
        "address": "成都市实业街32号 ",
        "longitude": 104.058845,
        "latitude": 30.673251,
        "city": "成都市"
    },
    {
        "name": "国家体育总局成都运动创伤研究所〓国家体育总局成都体育医院 ",
        "address": "成都市武侯区一环路西段132号 ",
        "longitude": 104.04124,
        "latitude": 30.612882,
        "city": "成都市"
    },
    {
        "name": "成都医学院附属医院(原成都军医学院附属学院) ",
        "address": "成都市新都区 ",
        "longitude": 104.116583,
        "latitude": 30.839504,
        "city": "成都市"
    },
    {
        "name": "攀枝花市中心医院 ",
        "address": "攀枝花市大河北路三村60号 ",
        "longitude": 101.805685,
        "latitude": 26.192149,
        "city": "攀枝花市"
    },
    {
        "name": "绵阳市中心医院 ",
        "address": "绵阳市常家巷12号 ",
        "longitude": 104.759514,
        "latitude": 31.463635,
        "city": "绵阳市"
    },
    {
        "name": "四川省精神卫生中心〓绵阳市第三人民医院 ",
        "address": "绵阳市剑南路东段190号 ",
        "longitude": 104.767075,
        "latitude": 31.47534,
        "city": "绵阳市"
    },
    {
        "name": "川北医学院附属医院 ",
        "address": "南充市文化路113号 ",
        "longitude": 106.092576,
        "latitude": 30.798781,
        "city": "南充市"
    },
    {
        "name": "达州市中心医院(原达川地区人民医院) ",
        "address": "达州市通川区大东街(柴市街)151号 ",
        "longitude": 107.507836,
        "latitude": 31.215144,
        "city": "达州市"
    },
    {
        "name": "遂宁市人民医院 ",
        "address": "遂宁市德胜路西段84号 ",
        "longitude": 105.584029,
        "latitude": 30.508165,
        "city": "遂宁市"
    },
    {
        "name": "泸州医学院附属医院 ",
        "address": "泸州市太平街25号 ",
        "longitude": 105.453743,
        "latitude": 28.894112,
        "city": "泸州市"
    },
    {
        "name": "宜宾市第二人民医院 ",
        "address": "宜宾市北正街19号 ",
        "longitude": 104.626409,
        "latitude": 28.777466,
        "city": "宜宾市"
    },
    {
        "name": "中国人民解放军成都军区总医院 ",
        "address": "成都市金牛区天回镇 ",
        "longitude": 104.123404,
        "latitude": 30.767011,
        "city": "成都市"
    },
    {
        "name": "空军成都医院〓中国人民解放军第四五二医院 ",
        "address": "成都市锦江区工农院街1号 ",
        "longitude": 104.101494,
        "latitude": 30.63834,
        "city": "成都市"
    },
    {
        "name": "贵州省人民医院 ",
        "address": "贵阳市中山东路52号 ",
        "longitude": 106.721381,
        "latitude": 26.583078,
        "city": "贵阳市"
    },
    {
        "name": "贵阳医学院附属医院〓贵州省肿瘤医院 ",
        "address": "贵阳市北京路1号 ",
        "longitude": 106.724357,
        "latitude": 26.602099,
        "city": "贵阳市"
    },
    {
        "name": "贵阳中医学院第二附属医院 ",
        "address": "贵阳市云岩区飞山街83号 ",
        "longitude": 106.714608,
        "latitude": 26.585783,
        "city": "贵阳市"
    },
    {
        "name": "贵阳市妇幼保健院〓贵阳市儿童医院 ",
        "address": "贵阳市瑞金南路63号 ",
        "longitude": 106.719636,
        "latitude": 26.57272,
        "city": "贵阳市"
    },
    {
        "name": "遵义医学院附属医院 ",
        "address": "遵义市大连路113号 ",
        "longitude": 106.953594,
        "latitude": 27.713952,
        "city": "遵义市"
    },
    {
        "name": "遵义市中医院 ",
        "address": "遵义市凤凰南路文庙巷8号 ",
        "longitude": 106.931641,
        "latitude": 27.694633,
        "city": "遵义市"
    },
    {
        "name": "云南省第一人民医院〓昆华医院 ",
        "address": "昆明市金碧路157号 ",
        "longitude": 102.714138,
        "latitude": 25.039243,
        "city": "昆明市"
    },
    {
        "name": "云南省第二人民医院〓云南省红十字会医院 ",
        "address": "昆明市五华区青年路176号 ",
        "longitude": 102.721125,
        "latitude": 25.054196,
        "city": "昆明市"
    },
    {
        "name": "云南中医学院第一附属医院〓云南省中医院 ",
        "address": "昆明市盘龙区光华街120号 ",
        "longitude": 102.712177,
        "latitude": 25.046245,
        "city": "昆明市"
    },
    {
        "name": "昆明医科大学第一附属医院 ",
        "address": "昆明市西昌路295号 ",
        "longitude": 102.700713,
        "latitude": 25.047529,
        "city": "昆明市"
    },
    {
        "name": "昆明医科大学第二附属医院 ",
        "address": "昆明市西山区麻园1号 ",
        "longitude": 102.686737,
        "latitude": 25.060607,
        "city": "昆明市"
    },
    {
        "name": "昆明市第一人民医院 ",
        "address": "昆明市盘龙区巡津街35号 ",
        "longitude": 102.721946,
        "latitude": 25.036849,
        "city": "昆明市"
    },
    {
        "name": "昆明市中医院 ",
        "address": "昆明市盘龙区东风东路27号 ",
        "longitude": 102.731131,
        "latitude": 25.044362,
        "city": "昆明市"
    },
    {
        "name": "昆明市延安医院 ",
        "address": "昆明市盘龙区人民东路64号 ",
        "longitude": 102.729489,
        "latitude": 25.049211,
        "city": "昆明市"
    },
    {
        "name": "西双版纳州人民医院 ",
        "address": "景洪市嘎兰南路17号 ",
        "longitude": 100.807533,
        "latitude": 22.011734,
        "city": "景洪市"
    },
    {
        "name": "大理州人民医院 ",
        "address": "大理市人民南路122号 ",
        "longitude": 100.224704,
        "latitude": 25.591148,
        "city": "大理市"
    },
    {
        "name": "玉溪市人民医院 ",
        "address": "玉溪市红塔路21号 ",
        "longitude": 102.550747,
        "latitude": 24.360425,
        "city": "玉溪市"
    },
    {
        "name": "玉溪市中医院 ",
        "address": "玉溪市红塔路上段 ",
        "longitude": 102.550747,
        "latitude": 24.360425,
        "city": "玉溪市"
    },
    {
        "name": "成都军区昆明总医院 ",
        "address": "昆明市大观路212号 ",
        "longitude": 102.691675,
        "latitude": 25.041419,
        "city": "昆明市"
    },
    {
        "name": "中国人民解放军第五十九医院 ",
        "address": "开远市 ",
        "longitude": 103.400155,
        "latitude": 23.729056,
        "city": "开远市"
    },
    {
        "name": "西藏自治区人民医院 ",
        "address": "拉萨市林廓北路18号 ",
        "longitude": 91.133163,
        "latitude": 29.663636,
        "city": "拉萨市"
    },
    {
        "name": "中国人民解放军西藏军区总医院 ",
        "address": "拉萨市阳扎路 ",
        "longitude": 91.111891,
        "latitude": 29.662557,
        "city": "拉萨市"
    },
    {
        "name": "西安交通大学第一附属医院 ",
        "address": "西安市雁塔西路277号 ",
        "longitude": 108.943246,
        "latitude": 34.224653,
        "city": "西安市"
    },
    {
        "name": "西安交通大学第二附属医院 ",
        "address": "西安市西五路157号 ",
        "longitude": 108.956471,
        "latitude": 34.276481,
        "city": "西安市"
    },
    {
        "name": "西安交通大学附属口腔医院 ",
        "address": "西安市西五路98号 ",
        "longitude": 108.954587,
        "latitude": 34.275853,
        "city": "西安市"
    },
    {
        "name": "中医药研究院附属医院〓陕西省中医院 ",
        "address": "西安市西华门20号 ",
        "longitude": 108.950997,
        "latitude": 34.270781,
        "city": "西安市"
    },
    {
        "name": "陕西省人民医院 ",
        "address": "西安市友谊西路256号 ",
        "longitude": 108.937814,
        "latitude": 34.246993,
        "city": "西安市"
    },
    {
        "name": "陕西省第三人民医院〓陕西省肿瘤医院 ",
        "address": "西安市雁塔西路309号 ",
        "longitude": 108.9394,
        "latitude": 34.224604,
        "city": "西安市"
    },
    {
        "name": "陕西省妇幼保健院 ",
        "address": "西安市后宰门73号 ",
        "longitude": 108.958744,
        "latitude": 34.278237,
        "city": "西安市"
    },
    {
        "name": "陕西省结核病防治院 ",
        "address": "西安市长安区太乙乡上湾村甲字1号 ",
        "longitude": 108.972464,
        "latitude": 34.250358,
        "city": "西安市"
    },
    {
        "name": "西安市中心医院 ",
        "address": "西安市北大街后宰门4号 ",
        "longitude": 108.961852,
        "latitude": 34.277815,
        "city": "西安市"
    },
    {
        "name": "西安市第一医院 ",
        "address": "西安市碑林区南大街粉巷30号 ",
        "longitude": 108.950625,
        "latitude": 34.261553,
        "city": "西安市"
    },
    {
        "name": "西安市第四医院 ",
        "address": "西安市新城区解放路21号 ",
        "longitude": 108.96981,
        "latitude": 34.26733,
        "city": "西安市"
    },
    {
        "name": "西安市中医院 ",
        "address": "西安市东大街183号(大差市口) ",
        "longitude": 108.968097,
        "latitude": 34.266112,
        "city": "西安市"
    },
    {
        "name": "西安市儿童医院 ",
        "address": "西安市西举院巷69号 ",
        "longitude": 108.932212,
        "latitude": 34.268165,
        "city": "西安市"
    },
    {
        "name": "西安市红十字会医院 ",
        "address": "西安市南稍门红会路76号 ",
        "longitude": 108.956,
        "latitude": 34.249976,
        "city": "西安市"
    },
    {
        "name": "西安铁路中心医院 ",
        "address": "西安市友谊东路 ",
        "longitude": 108.99158,
        "latitude": 34.247338,
        "city": "西安市"
    },
    {
        "name": "陕西中医学院附属医院 ",
        "address": "咸阳市渭阳西路 ",
        "longitude": 108.694436,
        "latitude": 34.330796,
        "city": "咸阳市"
    },
    {
        "name": "汉中市中心医院 ",
        "address": "汉中市康复路22号 ",
        "longitude": 107.023273,
        "latitude": 33.081851,
        "city": "汉中市"
    },
    {
        "name": "汉中三二Ｏ一医院 ",
        "address": "汉中市汉江路46号 ",
        "longitude": 107.031726,
        "latitude": 33.067963,
        "city": "汉中市"
    },
    {
        "name": "宝鸡市中心医院 ",
        "address": "宝鸡市渭滨区姜潭路8号 ",
        "longitude": 107.108244,
        "latitude": 34.311027,
        "city": "宝鸡市"
    },
    {
        "name": "宝鸡市中医院〓陕西中医学院附属宝鸡医院 ",
        "address": "宝鸡市金台区宝福路43号 ",
        "longitude": 107.13391,
        "latitude": 34.384389,
        "city": "宝鸡市"
    },
    {
        "name": "中国人民解放军第四军医大学西京医院 ",
        "address": "西安市长乐西路15号 ",
        "longitude": 108.995908,
        "latitude": 34.27577,
        "city": "西安市"
    },
    {
        "name": "中国人民解放军第四军医大学唐都医院 ",
        "address": "西安市灞桥区新寺路 ",
        "longitude": 109.071031,
        "latitude": 34.287812,
        "city": "西安市"
    },
    {
        "name": "中国人民解放军第四军医大学口腔医院〓秦都口腔医院 ",
        "address": "西安市康复路中段1号 ",
        "longitude": 108.990881,
        "latitude": 34.275721,
        "city": "西安市"
    },
    {
        "name": "中国人民解放军第三二三医院 ",
        "address": "西安市建设西路6号 ",
        "longitude": 108.967486,
        "latitude": 34.241862,
        "city": "西安市"
    },
    {
        "name": "中国人民解放军空军四五一医院 ",
        "address": "西安市友谊东路269号 ",
        "longitude": 108.97351,
        "latitude": 34.24771,
        "city": "西安市"
    },
    {
        "name": "武警陕西总队医院 ",
        "address": "西安市南二环刘家庄 ",
        "longitude": 108.991017,
        "latitude": 34.24238,
        "city": "西安市"
    },
    {
        "name": "中国人民解放军第三中心医院 ",
        "address": "宝鸡市东风路45号 ",
        "longitude": 107.202335,
        "latitude": 34.369789,
        "city": "宝鸡市"
    },
    {
        "name": "甘肃省人民医院 ",
        "address": "兰州市东岗西路160号 ",
        "longitude": 103.872493,
        "latitude": 36.054834,
        "city": "兰州市"
    },
    {
        "name": "甘肃省中医院 ",
        "address": "兰州市七里河区安西路388号 ",
        "longitude": 103.786428,
        "latitude": 36.077575,
        "city": "兰州市"
    },
    {
        "name": "兰州大学第一附属医院 ",
        "address": "兰州市东岗西路1号 ",
        "longitude": 103.867431,
        "latitude": 36.050643,
        "city": "兰州市"
    },
    {
        "name": "兰州大学第二附属医院 ",
        "address": "兰州市城关区萃英门80号 ",
        "longitude": 103.819596,
        "latitude": 36.06652,
        "city": "兰州市"
    },
    {
        "name": "兰州第一人民医院 ",
        "address": "兰州市吴家园1号 ",
        "longitude": 103.786075,
        "latitude": 36.080401,
        "city": "兰州市"
    },
    {
        "name": "兰州军区总医院 ",
        "address": "兰州市七里河区小西湖西街98号 ",
        "longitude": 103.804122,
        "latitude": 36.071437,
        "city": "兰州市"
    },
    {
        "name": "中国人民解放军第一医院〓三爱堂医院 ",
        "address": "兰州市小稍门外2号 ",
        "longitude": 103.823305,
        "latitude": 36.064226,
        "city": "兰州市"
    },
    {
        "name": "中国人民解放军第七医院 ",
        "address": "临夏市西川 ",
        "longitude": 103.199071,
        "latitude": 35.595769,
        "city": "临夏市"
    },
    {
        "name": "中国人民解放军第四七三医院〓空军兰州医院 ",
        "address": "兰州市安宁东路818号 ",
        "longitude": 103.745243,
        "latitude": 36.106327,
        "city": "兰州市"
    },
    {
        "name": "青海大学医学院附属医院〓青海大学省红十字博爱医院〓青海大学医学院附属肿瘤医院 ",
        "address": "西宁市同仁路29号 ",
        "longitude": 101.76914,
        "latitude": 36.628515,
        "city": "西宁市"
    },
    {
        "name": "青海大学医学院附属藏医院〓青海省藏医院 ",
        "address": "西宁市南山东路97号 ",
        "longitude": 101.792454,
        "latitude": 36.606737,
        "city": "西宁市"
    },
    {
        "name": "青海省人民医院 ",
        "address": "西宁市共和路2号 ",
        "longitude": 101.811118,
        "latitude": 36.62518,
        "city": "西宁市"
    },
    {
        "name": "青海省第三人民医院〓青海省精神卫生防治院 ",
        "address": "西宁市果洛路41号 ",
        "longitude": 101.816984,
        "latitude": 36.604668,
        "city": "西宁市"
    },
    {
        "name": "青海省中医院〓青海省中西医结合医院 ",
        "address": "西宁市城中区七一路338号 ",
        "longitude": 101.7954,
        "latitude": 36.631784,
        "city": "西宁市"
    },
    {
        "name": "青海省妇产儿童医院 ",
        "address": "西宁市共和路15号 ",
        "longitude": 101.811939,
        "latitude": 36.625183,
        "city": "西宁市"
    },
    {
        "name": "青海省康复医院 ",
        "address": "西宁市八一路106号 ",
        "longitude": 101.817951,
        "latitude": 36.612534,
        "city": "西宁市"
    },
    {
        "name": "中国人民解放军第四医院 ",
        "address": "西宁市八一路73号 ",
        "longitude": 101.836625,
        "latitude": 36.597534,
        "city": "西宁市"
    },
    {
        "name": "宁夏医学院附属医院 ",
        "address": "银川市胜利南街78号 ",
        "longitude": 106.286685,
        "latitude": 38.45035,
        "city": "银川市"
    },
    {
        "name": "宁夏回族自治区人民医院 ",
        "address": "银川市西夏区怀远西路 ",
        "longitude": 106.130669,
        "latitude": 38.49679,
        "city": "银川市"
    },
    {
        "name": "宁夏医学院第二附属医院〓银川市第一人民医院 ",
        "address": "银川市利群西街2号 ",
        "longitude": 106.280747,
        "latitude": 38.467541,
        "city": "银川市"
    },
    {
        "name": "新疆医科大学第一附属医院 ",
        "address": "乌鲁木齐市新市区鲤鱼山路1号 ",
        "longitude": 87.600989,
        "latitude": 43.883585,
        "city": "乌鲁木齐市"
    },
    {
        "name": "新疆创伤外科医院〓新疆医科大学第二附属医院 ",
        "address": "乌鲁木齐市七道湾路50号 ",
        "longitude": 87.656866,
        "latitude": 43.859283,
        "city": "乌鲁木齐市"
    },
    {
        "name": "新疆医科大学附属肿瘤医院 ",
        "address": "乌鲁木齐市新市区北京南路30号 ",
        "longitude": 87.582346,
        "latitude": 43.845282,
        "city": "乌鲁木齐市"
    },
    {
        "name": "新疆自治区人民医院 ",
        "address": "乌鲁木齐市天山区天池路91号 ",
        "longitude": 87.621303,
        "latitude": 43.78954,
        "city": "乌鲁木齐市"
    },
    {
        "name": "新疆医科大学附属中医医院〓新疆自治区中医院〓新疆自治区维吾尔中医院 ",
        "address": "乌鲁木齐市黄河路68号 ",
        "longitude": 87.608937,
        "latitude": 43.797537,
        "city": "乌鲁木齐市"
    },
    {
        "name": "新疆维吾尔自治区维吾尔医医院 ",
        "address": "乌鲁木齐市天山区延安路36号 ",
        "longitude": 87.634249,
        "latitude": 43.77294,
        "city": "乌鲁木齐市"
    },
    {
        "name": "新疆自治区肺科医院 ",
        "address": "乌鲁木齐市天山区延安路8号 ",
        "longitude": 87.624913,
        "latitude": 43.779897,
        "city": "乌鲁木齐市"
    },
    {
        "name": "乌鲁木齐市友谊医院〓乌鲁木齐市第三医院 ",
        "address": "乌鲁木齐市胜利路22号 ",
        "longitude": 87.622786,
        "latitude": 43.783967,
        "city": "乌鲁木齐市"
    },
    {
        "name": "新疆生产建设兵团总医院〓石沙子大学医学院第二附属医院 ",
        "address": "乌鲁木齐市天山区五星路15号 ",
        "longitude": 87.639036,
        "latitude": 43.811211,
        "city": "乌鲁木齐市"
    },
    {
        "name": "新疆医科大学第五附属医院(原乌鲁木齐铁路中心医院) ",
        "address": "乌鲁木齐市新市区河南西路9号 ",
        "longitude": 87.565827,
        "latitude": 43.875214,
        "city": "乌鲁木齐市"
    },
    {
        "name": "新疆石油管理局乌鲁木齐医院 ",
        "address": "乌鲁木齐市沙依巴克区友好北路9号 ",
        "longitude": 87.577125,
        "latitude": 43.85402,
        "city": "乌鲁木齐市"
    },
    {
        "name": "新疆石油管理局职工总医院 ",
        "address": "克拉玛依市 ",
        "longitude": 84.88118,
        "latitude": 45.594331,
        "city": "克拉玛依市"
    },
    {
        "name": "石河子大学医学院第一附属医院 ",
        "address": "石河子市红山 ",
        "longitude": 86.041865,
        "latitude": 44.308259,
        "city": "石河子市"
    },
    {
        "name": "中国人民解放军第四七四医院〓空军乌鲁木齐医院 ",
        "address": "乌鲁木齐市北京北路26号 ",
        "longitude": 87.557204,
        "latitude": 43.897042,
        "city": "乌鲁木齐市"
    },
    {
        "name": "中国人民解放军兰州军区乌鲁木齐总医院 ",
        "address": "乌鲁木齐市友好北路41号 ",
        "longitude": 87.591772,
        "latitude": 43.838245,
        "city": "乌鲁木齐市"
    }
]